address_full,major_city,state,lat,lon,block_group,collection_datetime,provider,price,speed_down,speed_up,speed_unit,technology,package,fastest_speed_down,fastest_speed_price,speed_down_bins,redlining_grade,race_perc_non_white,race_quantile,median_household_income,income_dollars_below_median,income_level,ppl_per_sq_mile,n_providers,internet_perc_broadband,contract_provider
"8503 La Palomita Rd NE Albuquerque, NM 87111",albuquerque,NM,35.1194327,-106.5493977,350010001202,1652029470,EarthLink,49.95,10.0,1.0,Mbps,Copper,EarthLink Internet 10M,10.0,49.95,Slow (<25 Mbps),,0.6791641057160418,less white,37857.0,16079.0,Low,2547.9083504681607,2.0,0.7567114093959731,CenturyLink
"8813 Candelaria Rd NE Albuquerque, NM 87112",albuquerque,NM,35.1167134,-106.5455725,350010001202,1652695293,EarthLink,49.95,15.0,0.75,Mbps,Copper,EarthLink Internet 15M,15.0,49.95,Slow (<25 Mbps),,0.6791641057160418,less white,37857.0,16079.0,Low,2547.9083504681607,2.0,0.7567114093959731,CenturyLink
"8905 Aztec Rd NE Albuquerque, NM 87111",albuquerque,NM,35.1197801,-106.5444055,350010001202,1653235314,EarthLink,49.95,15.0,0.75,Mbps,Copper,EarthLink Internet 15M,80.0,69.95,Slow (<25 Mbps),,0.6791641057160418,less white,37857.0,16079.0,Low,2547.9083504681607,2.0,0.7567114093959731,CenturyLink
"8811 Aztec Rd NE Albuquerque, NM 87111",albuquerque,NM,35.1197932,-106.5458225,350010001202,1652745791,EarthLink,49.95,15.0,0.75,Mbps,Copper,EarthLink Internet 15M,80.0,69.95,Slow (<25 Mbps),,0.6791641057160418,less white,37857.0,16079.0,Low,2547.9083504681607,2.0,0.7567114093959731,CenturyLink
"8802 Cottonwood Rd NE Albuquerque, NM 87111",albuquerque,NM,35.1186481,-106.5462521,350010001202,1652995152,EarthLink,49.95,10.0,1.0,Mbps,Copper,EarthLink Internet 10M,40.0,69.95,Slow (<25 Mbps),,0.6791641057160418,less white,37857.0,16079.0,Low,2547.9083504681607,2.0,0.7567114093959731,CenturyLink
"8604 La Sala Del Sur NE Albuquerque, NM 87111",albuquerque,NM,35.1205633,-106.5477333,350010001202,1653265877,EarthLink,49.95,10.0,1.0,Mbps,Copper,EarthLink Internet 10M,40.0,69.95,Slow (<25 Mbps),,0.6791641057160418,less white,37857.0,16079.0,Low,2547.9083504681607,2.0,0.7567114093959731,CenturyLink
"8810 Shoshone Rd NE Albuquerque, NM 87111",albuquerque,NM,35.1170489,-106.5457544,350010001202,1652950865,EarthLink,49.95,10.0,1.0,Mbps,Copper,EarthLink Internet 10M,40.0,69.95,Slow (<25 Mbps),,0.6791641057160418,less white,37857.0,16079.0,Low,2547.9083504681607,2.0,0.7567114093959731,CenturyLink
"8914 Cottonwood Rd NE Albuquerque, NM 87111",albuquerque,NM,35.1186076,-106.5448652,350010001202,1652360731,EarthLink,49.95,10.0,1.0,Mbps,Copper,EarthLink Internet 10M,40.0,69.95,Slow (<25 Mbps),,0.6791641057160418,less white,37857.0,16079.0,Low,2547.9083504681607,2.0,0.7567114093959731,CenturyLink
"8421 La Camila Rd NE Albuquerque, NM 87111",albuquerque,NM,35.1184908,-106.5494878,350010001202,1651568470,EarthLink,49.95,10.0,1.0,Mbps,Copper,EarthLink Internet 10M,10.0,49.95,Slow (<25 Mbps),,0.6791641057160418,less white,37857.0,16079.0,Low,2547.9083504681607,2.0,0.7567114093959731,CenturyLink
"3110 General Chennault St NE Albuquerque, NM 87111",albuquerque,NM,35.1182395,-106.5451901,350010001202,1653188487,EarthLink,49.95,15.0,0.75,Mbps,Copper,EarthLink Internet 15M,80.0,69.95,Slow (<25 Mbps),,0.6791641057160418,less white,37857.0,16079.0,Low,2547.9083504681607,2.0,0.7567114093959731,CenturyLink
"9002 Cottonwood Rd NE Albuquerque, NM 87111",albuquerque,NM,35.1186237,-106.5446595,350010001202,1653012122,EarthLink,49.95,10.0,1.0,Mbps,Copper,EarthLink Internet 10M,40.0,69.95,Slow (<25 Mbps),,0.6791641057160418,less white,37857.0,16079.0,Low,2547.9083504681607,2.0,0.7567114093959731,CenturyLink
"2908 La Camila Rd NE Albuquerque, NM 87111",albuquerque,NM,35.1169902,-106.5481166,350010001202,1652198490,EarthLink,49.95,10.0,1.0,Mbps,Copper,EarthLink Internet 10M,40.0,69.95,Slow (<25 Mbps),,0.6791641057160418,less white,37857.0,16079.0,Low,2547.9083504681607,2.0,0.7567114093959731,CenturyLink
"3204 La Sala Cuadra NE Albuquerque, NM 87111",albuquerque,NM,35.1207041,-106.5447919,350010001202,1651878133,EarthLink,49.95,10.0,1.0,Mbps,Copper,EarthLink Internet 10M,40.0,69.95,Slow (<25 Mbps),,0.6791641057160418,less white,37857.0,16079.0,Low,2547.9083504681607,2.0,0.7567114093959731,CenturyLink
"8922 Aztec Rd NE Albuquerque, NM 87111",albuquerque,NM,35.1193448,-106.5436057,350010001202,1653149252,EarthLink,49.95,10.0,1.0,Mbps,Copper,EarthLink Internet 10M,40.0,69.95,Slow (<25 Mbps),,0.6791641057160418,less white,37857.0,16079.0,Low,2547.9083504681607,2.0,0.7567114093959731,CenturyLink
"3412 La Sala Del Este NE Albuquerque, NM 87111",albuquerque,NM,35.122862,-106.5447311,350010001202,1652256105,EarthLink,49.95,10.0,1.0,Mbps,Copper,EarthLink Internet 10M,10.0,49.95,Slow (<25 Mbps),,0.6791641057160418,less white,37857.0,16079.0,Low,2547.9083504681607,2.0,0.7567114093959731,CenturyLink
"2903 General Stilwell St NE Albuquerque, NM 87111",albuquerque,NM,35.1167272,-106.5467717,350010001202,1653289297,EarthLink,49.95,10.0,1.0,Mbps,Copper,EarthLink Internet 10M,40.0,69.95,Slow (<25 Mbps),,0.6791641057160418,less white,37857.0,16079.0,Low,2547.9083504681607,2.0,0.7567114093959731,CenturyLink
"8908 Shoshone Rd NE Albuquerque, NM 87111",albuquerque,NM,35.1178857,-106.5444237,350010001202,1653462107,EarthLink,49.95,15.0,0.75,Mbps,Copper,EarthLink Internet 15M,100.0,79.95,Slow (<25 Mbps),,0.6791641057160418,less white,37857.0,16079.0,Low,2547.9083504681607,2.0,0.7567114093959731,CenturyLink
"9002 Aztec Rd NE Albuquerque, NM 87111",albuquerque,NM,35.1193249,-106.5427793,350010001202,1652133776,EarthLink,49.95,15.0,0.75,Mbps,Copper,EarthLink Internet 15M,100.0,79.95,Slow (<25 Mbps),,0.6791641057160418,less white,37857.0,16079.0,Low,2547.9083504681607,2.0,0.7567114093959731,CenturyLink
"3109 General Stilwell St NE Albuquerque, NM 87111",albuquerque,NM,35.1191192,-106.5467801,350010001202,1652180507,EarthLink,49.95,10.0,1.0,Mbps,Copper,EarthLink Internet 10M,40.0,69.95,Slow (<25 Mbps),,0.6791641057160418,less white,37857.0,16079.0,Low,2547.9083504681607,2.0,0.7567114093959731,CenturyLink
"8904 Cottonwood Rd NE Albuquerque, NM 87111",albuquerque,NM,35.11866,-106.5453584,350010001202,1652861006,EarthLink,49.95,15.0,0.75,Mbps,Copper,EarthLink Internet 15M,80.0,69.95,Slow (<25 Mbps),,0.6791641057160418,less white,37857.0,16079.0,Low,2547.9083504681607,2.0,0.7567114093959731,CenturyLink
"8705 La Sala Grande NE Albuquerque, NM 87111",albuquerque,NM,35.1193443,-106.5478205,350010001202,1651845850,EarthLink,49.95,10.0,1.0,Mbps,Copper,EarthLink Internet 10M,10.0,49.95,Slow (<25 Mbps),,0.6791641057160418,less white,37857.0,16079.0,Low,2547.9083504681607,2.0,0.7567114093959731,CenturyLink
"8809 Candelaria Rd NE Albuquerque, NM 87112",albuquerque,NM,35.1167131,-106.5457884,350010001202,1651833998,EarthLink,49.95,10.0,1.0,Mbps,Copper,EarthLink Internet 10M,40.0,69.95,Slow (<25 Mbps),,0.6791641057160418,less white,37857.0,16079.0,Low,2547.9083504681607,2.0,0.7567114093959731,CenturyLink
"8703 Aztec Rd NE Albuquerque, NM 87111",albuquerque,NM,35.120136,-106.547653,350010001202,1651917704,EarthLink,49.95,10.0,1.0,Mbps,Copper,EarthLink Internet 10M,40.0,69.95,Slow (<25 Mbps),,0.6791641057160418,less white,37857.0,16079.0,Low,2547.9083504681607,2.0,0.7567114093959731,CenturyLink
"9110 Cottonwood Rd NE Albuquerque, NM 87111",albuquerque,NM,35.1186208,-106.5434611,350010001202,1651014099,EarthLink,49.95,10.0,1.0,Mbps,Copper,EarthLink Internet 10M,40.0,69.95,Slow (<25 Mbps),,0.6791641057160418,less white,37857.0,16079.0,Low,2547.9083504681607,2.0,0.7567114093959731,CenturyLink
"8420 Aztec Rd NE Albuquerque, NM 87111",albuquerque,NM,35.1197689,-106.549743,350010001202,1653242530,EarthLink,49.95,10.0,1.0,Mbps,Copper,EarthLink Internet 10M,10.0,49.95,Slow (<25 Mbps),,0.6791641057160418,less white,37857.0,16079.0,Low,2547.9083504681607,2.0,0.7567114093959731,CenturyLink
"8728 Aztec Rd NE Albuquerque, NM 87111",albuquerque,NM,35.1193712,-106.5467638,350010001202,1652094080,EarthLink,49.95,10.0,1.0,Mbps,Copper,EarthLink Internet 10M,40.0,69.95,Slow (<25 Mbps),,0.6791641057160418,less white,37857.0,16079.0,Low,2547.9083504681607,2.0,0.7567114093959731,CenturyLink
"8905 Cottonwood Rd NE Albuquerque, NM 87111",albuquerque,NM,35.1190745,-106.545233,350010001202,1652407298,EarthLink,49.95,10.0,1.0,Mbps,Copper,EarthLink Internet 10M,40.0,69.95,Slow (<25 Mbps),,0.6791641057160418,less white,37857.0,16079.0,Low,2547.9083504681607,2.0,0.7567114093959731,CenturyLink
"8904 Oak Ridge Ct NE Albuquerque, NM 87122",albuquerque,NM,35.1864017,-106.5470437,350010037321,1652170574,EarthLink,49.95,15.0,0.75,Mbps,Copper,EarthLink Internet 15M,40.0,69.95,Slow (<25 Mbps),,0.3852798894263994,most white,129667.0,-75731.0,Upper Income,752.7585975488265,2.0,0.948905109489051,CenturyLink
"9215 Ventura St NE Albuquerque, NM 87122",albuquerque,NM,35.1912254,-106.5425619,350010037321,1653444124,EarthLink,49.95,15.0,0.75,Mbps,Copper,EarthLink Internet 15M,15.0,49.95,Slow (<25 Mbps),,0.3852798894263994,most white,129667.0,-75731.0,Upper Income,752.7585975488265,2.0,0.948905109489051,CenturyLink
"9204 Benjamin Pl NE Albuquerque, NM 87122",albuquerque,NM,35.1906003,-106.5480152,350010037321,1653145302,EarthLink,49.95,15.0,0.75,Mbps,Copper,EarthLink Internet 15M,80.0,69.95,Slow (<25 Mbps),,0.3852798894263994,most white,129667.0,-75731.0,Upper Income,752.7585975488265,2.0,0.948905109489051,CenturyLink
"8409 Desert Sunrise Rd NE Albuquerque, NM 87122",albuquerque,NM,35.1885305,-106.550092,350010037321,1652886140,EarthLink,49.95,15.0,0.75,Mbps,Copper,EarthLink Internet 15M,80.0,69.95,Slow (<25 Mbps),,0.3852798894263994,most white,129667.0,-75731.0,Upper Income,752.7585975488265,2.0,0.948905109489051,CenturyLink
"8404 Rising Star Pl NE Albuquerque, NM 87122",albuquerque,NM,35.1875487,-106.5506496,350010037321,1653249730,EarthLink,49.95,15.0,0.75,Mbps,Copper,EarthLink Internet 15M,15.0,49.95,Slow (<25 Mbps),,0.3852798894263994,most white,129667.0,-75731.0,Upper Income,752.7585975488265,2.0,0.948905109489051,CenturyLink
"8100 Via Alegre NE Albuquerque, NM 87122",albuquerque,NM,35.1889835,-106.5544229,350010037321,1652331728,EarthLink,49.95,15.0,0.75,Mbps,Copper,EarthLink Internet 15M,15.0,49.95,Slow (<25 Mbps),,0.3852798894263994,most white,129667.0,-75731.0,Upper Income,752.7585975488265,2.0,0.948905109489051,CenturyLink
"9104 Via Asombro NE Albuquerque, NM 87122",albuquerque,NM,35.1893561,-106.5514474,350010037321,1652450577,EarthLink,49.95,15.0,0.75,Mbps,Copper,EarthLink Internet 15M,40.0,69.95,Slow (<25 Mbps),,0.3852798894263994,most white,129667.0,-75731.0,Upper Income,752.7585975488265,2.0,0.948905109489051,CenturyLink
"9108 Via Asombro NE Albuquerque, NM 87122",albuquerque,NM,35.1896007,-106.5514469,350010037321,1652626935,EarthLink,49.95,15.0,0.75,Mbps,Copper,EarthLink Internet 15M,40.0,69.95,Slow (<25 Mbps),,0.3852798894263994,most white,129667.0,-75731.0,Upper Income,752.7585975488265,2.0,0.948905109489051,CenturyLink
"8801 Rich Ct NE Albuquerque, NM 87122",albuquerque,NM,35.1846589,-106.548135,350010037321,1652229207,EarthLink,49.95,6.0,0.768,Mbps,Copper,EarthLink Internet 6M,6.0,49.95,Slow (<25 Mbps),,0.3852798894263994,most white,129667.0,-75731.0,Upper Income,752.7585975488265,2.0,0.948905109489051,CenturyLink
"9041 Walter Bambrook Pl NE Albuquerque, NM 87122",albuquerque,NM,35.1884882,-106.5581269,350010037321,1652029451,EarthLink,49.95,15.0,0.75,Mbps,Copper,EarthLink Internet 15M,40.0,69.95,Slow (<25 Mbps),,0.3852798894263994,most white,129667.0,-75731.0,Upper Income,752.7585975488265,2.0,0.948905109489051,CenturyLink
"8404 Desert Sunrise Rd NE Albuquerque, NM 87122",albuquerque,NM,35.1881367,-106.5503601,350010037321,1652915015,EarthLink,49.95,15.0,0.75,Mbps,Copper,EarthLink Internet 15M,80.0,69.95,Slow (<25 Mbps),,0.3852798894263994,most white,129667.0,-75731.0,Upper Income,752.7585975488265,2.0,0.948905109489051,CenturyLink
"9205 Benjamin Pl NE Albuquerque, NM 87122",albuquerque,NM,35.1904936,-106.5486443,350010037321,1650985259,EarthLink,49.95,15.0,0.75,Mbps,Copper,EarthLink Internet 15M,80.0,69.95,Slow (<25 Mbps),,0.3852798894263994,most white,129667.0,-75731.0,Upper Income,752.7585975488265,2.0,0.948905109489051,CenturyLink
"9201 La Tierra Ct NE Albuquerque, NM 87122",albuquerque,NM,35.1904292,-106.5533543,350010037321,1651687532,EarthLink,49.95,15.0,0.75,Mbps,Copper,EarthLink Internet 15M,15.0,49.95,Slow (<25 Mbps),,0.3852798894263994,most white,129667.0,-75731.0,Upper Income,752.7585975488265,2.0,0.948905109489051,CenturyLink
"8416 Rising Star Pl NE Albuquerque, NM 87122",albuquerque,NM,35.1875255,-106.550047,350010037321,1652317266,EarthLink,49.95,15.0,0.75,Mbps,Copper,EarthLink Internet 15M,80.0,69.95,Slow (<25 Mbps),,0.3852798894263994,most white,129667.0,-75731.0,Upper Income,752.7585975488265,2.0,0.948905109489051,CenturyLink
"9212 La Tierra Ct NE Albuquerque, NM 87122",albuquerque,NM,35.1908079,-106.5527825,350010037321,1652116567,EarthLink,49.95,15.0,0.75,Mbps,Copper,EarthLink Internet 15M,15.0,49.95,Slow (<25 Mbps),,0.3852798894263994,most white,129667.0,-75731.0,Upper Income,752.7585975488265,2.0,0.948905109489051,CenturyLink
"9124 Twilight Ln NE Albuquerque, NM 87122",albuquerque,NM,35.1900525,-106.5574468,350010037321,1651961173,EarthLink,49.95,15.0,0.75,Mbps,Copper,EarthLink Internet 15M,80.0,69.95,Slow (<25 Mbps),,0.3852798894263994,most white,129667.0,-75731.0,Upper Income,752.7585975488265,2.0,0.948905109489051,CenturyLink
"9017 Walter Bambrook Pl NE Albuquerque, NM 87122",albuquerque,NM,35.1882955,-106.5594909,350010037321,1651928552,EarthLink,49.95,15.0,0.75,Mbps,Copper,EarthLink Internet 15M,40.0,69.95,Slow (<25 Mbps),,0.3852798894263994,most white,129667.0,-75731.0,Upper Income,752.7585975488265,2.0,0.948905109489051,CenturyLink
"8112 Via Alegre NE Albuquerque, NM 87122",albuquerque,NM,35.1889803,-106.5533648,350010037321,1653400843,EarthLink,49.95,15.0,0.75,Mbps,Copper,EarthLink Internet 15M,15.0,49.95,Slow (<25 Mbps),,0.3852798894263994,most white,129667.0,-75731.0,Upper Income,752.7585975488265,2.0,0.948905109489051,CenturyLink
"8201 Via Encantada NE Albuquerque, NM 87122",albuquerque,NM,35.1899875,-106.5527982,350010037321,1651709172,EarthLink,49.95,15.0,0.75,Mbps,Copper,EarthLink Internet 15M,15.0,49.95,Slow (<25 Mbps),,0.3852798894263994,most white,129667.0,-75731.0,Upper Income,752.7585975488265,2.0,0.948905109489051,CenturyLink
"8200 Via Alegre NE Albuquerque, NM 87122",albuquerque,NM,35.1889785,-106.5527694,350010037321,1651647626,EarthLink,49.95,15.0,0.75,Mbps,Copper,EarthLink Internet 15M,80.0,69.95,Slow (<25 Mbps),,0.3852798894263994,most white,129667.0,-75731.0,Upper Income,752.7585975488265,2.0,0.948905109489051,CenturyLink
"9037 Walter Bambrook Pl NE Albuquerque, NM 87122",albuquerque,NM,35.1885767,-106.5583884,350010037321,1653404877,EarthLink,49.95,15.0,0.75,Mbps,Copper,EarthLink Internet 15M,40.0,69.95,Slow (<25 Mbps),,0.3852798894263994,most white,129667.0,-75731.0,Upper Income,752.7585975488265,2.0,0.948905109489051,CenturyLink
"8815 Henriette Wyeth Dr NE Albuquerque, NM 87122",albuquerque,NM,35.1849273,-106.551995,350010037321,1651611966,EarthLink,49.95,15.0,0.75,Mbps,Copper,EarthLink Internet 15M,40.0,69.95,Slow (<25 Mbps),,0.3852798894263994,most white,129667.0,-75731.0,Upper Income,752.7585975488265,2.0,0.948905109489051,CenturyLink
"1711 Lomas Blvd NW Albuquerque, NM 87104",albuquerque,NM,35.0901713,-106.6243857,350010018001,1651795322,EarthLink,49.95,3.0,0.512,Mbps,Copper,EarthLink Internet 3M,3.0,49.95,Slow (<25 Mbps),,0.5205183585313174,more white,26810.0,27126.0,Low,427.0150174633464,2.0,0.5602836879432624,CenturyLink
"909 Vassar Dr NE Albuquerque, NM 87106",albuquerque,NM,35.0901766,-106.6145826,350010018001,1652454222,EarthLink,49.95,15.0,0.75,Mbps,Copper,EarthLink Internet 15M,100.0,79.95,Slow (<25 Mbps),,0.5205183585313174,more white,26810.0,27126.0,Low,427.0150174633464,2.0,0.5602836879432624,CenturyLink
"905 Vassar Dr NE Albuquerque, NM 87106",albuquerque,NM,35.0900359,-106.6145881,350010018001,1653494422,EarthLink,49.95,15.0,0.75,Mbps,Copper,EarthLink Internet 15M,100.0,79.95,Slow (<25 Mbps),,0.5205183585313174,more white,26810.0,27126.0,Low,427.0150174633464,2.0,0.5602836879432624,CenturyLink
"1007 Stanford Dr NE Albuquerque, NM 87106",albuquerque,NM,35.0913203,-106.6179573,350010018001,1653411740,EarthLink,49.95,3.0,0.512,Mbps,Copper,EarthLink Internet 3M,3.0,49.95,Slow (<25 Mbps),,0.5205183585313174,more white,26810.0,27126.0,Low,427.0150174633464,2.0,0.5602836879432624,CenturyLink
"1001 Yale Blvd NE Albuquerque, NM 87106",albuquerque,NM,35.0925913,-106.6215909,350010018001,1652036521,EarthLink,49.95,3.0,0.512,Mbps,Copper,EarthLink Internet 3M,3.0,49.95,Slow (<25 Mbps),,0.5205183585313174,more white,26810.0,27126.0,Low,427.0150174633464,2.0,0.5602836879432624,CenturyLink
"819 Vassar Dr NE Albuquerque, NM 87106",albuquerque,NM,35.0894033,-106.6145967,350010018001,1652324505,EarthLink,49.95,15.0,0.75,Mbps,Copper,EarthLink Internet 15M,100.0,79.95,Slow (<25 Mbps),,0.5205183585313174,more white,26810.0,27126.0,Low,427.0150174633464,2.0,0.5602836879432624,CenturyLink
"917 Vassar Dr NE Albuquerque, NM 87106",albuquerque,NM,35.0904429,-106.6145792,350010018001,1653036360,EarthLink,49.95,15.0,0.75,Mbps,Copper,EarthLink Internet 15M,100.0,79.95,Slow (<25 Mbps),,0.5205183585313174,more white,26810.0,27126.0,Low,427.0150174633464,2.0,0.5602836879432624,CenturyLink
"925 Vassar Dr NE Albuquerque, NM 87106",albuquerque,NM,35.0908886,-106.6145735,350010018001,1652320868,EarthLink,49.95,15.0,0.75,Mbps,Copper,EarthLink Internet 15M,100.0,79.95,Slow (<25 Mbps),,0.5205183585313174,more white,26810.0,27126.0,Low,427.0150174633464,2.0,0.5602836879432624,CenturyLink
"901 Vassar Dr NE Albuquerque, NM 87106",albuquerque,NM,35.0898795,-106.614587,350010018001,1652141023,EarthLink,49.95,15.0,0.75,Mbps,Copper,EarthLink Internet 15M,100.0,79.95,Slow (<25 Mbps),,0.5205183585313174,more white,26810.0,27126.0,Low,427.0150174633464,2.0,0.5602836879432624,CenturyLink
"1130 University Blvd NE Albuquerque, NM 87102",albuquerque,NM,35.0908558,-106.6250417,350010018001,1652270479,EarthLink,49.95,3.0,0.512,Mbps,Copper,EarthLink Internet 3M,3.0,49.95,Slow (<25 Mbps),,0.5205183585313174,more white,26810.0,27126.0,Low,427.0150174633464,2.0,0.5602836879432624,CenturyLink
"1504 Harvard Ct NE Albuquerque, NM 87106",albuquerque,NM,35.0984644,-106.6212653,350010018001,1652191333,EarthLink,49.95,15.0,0.75,Mbps,Copper,EarthLink Internet 15M,40.0,69.95,Slow (<25 Mbps),,0.5205183585313174,more white,26810.0,27126.0,Low,427.0150174633464,2.0,0.5602836879432624,CenturyLink
"1717 Lomas Blvd NE Albuquerque, NM 87106",albuquerque,NM,35.0901808,-106.6244764,350010018001,1652551273,EarthLink,49.95,3.0,0.512,Mbps,Copper,EarthLink Internet 3M,3.0,49.95,Slow (<25 Mbps),,0.5205183585313174,more white,26810.0,27126.0,Low,427.0150174633464,2.0,0.5602836879432624,CenturyLink
"1835 Lomas Blvd NE Albuquerque, NM 87106",albuquerque,NM,35.0894385,-106.6226674,350010018001,1652036901,EarthLink,49.95,3.0,0.512,Mbps,Copper,EarthLink Internet 3M,3.0,49.95,Slow (<25 Mbps),,0.5205183585313174,more white,26810.0,27126.0,Low,427.0150174633464,2.0,0.5602836879432624,CenturyLink
"1502 Harvard Ct NE Albuquerque, NM 87106",albuquerque,NM,35.0984902,-106.6216591,350010018001,1651701741,EarthLink,49.95,15.0,0.75,Mbps,Copper,EarthLink Internet 15M,40.0,69.95,Slow (<25 Mbps),,0.5205183585313174,more white,26810.0,27126.0,Low,427.0150174633464,2.0,0.5602836879432624,CenturyLink
"1111 Stanford Dr NE Albuquerque, NM 87106",albuquerque,NM,35.0924527,-106.6180551,350010018001,1653037415,EarthLink,49.95,10.0,1.0,Mbps,Copper,EarthLink Internet 10M,10.0,49.95,Slow (<25 Mbps),,0.5205183585313174,more white,26810.0,27126.0,Low,427.0150174633464,2.0,0.5602836879432624,CenturyLink
"1005 Yale Blvd NE Albuquerque, NM 87106",albuquerque,NM,35.0938184,-106.6214945,350010018001,1651579349,EarthLink,49.95,3.0,0.512,Mbps,Copper,EarthLink Internet 3M,3.0,49.95,Slow (<25 Mbps),,0.5205183585313174,more white,26810.0,27126.0,Low,427.0150174633464,2.0,0.5602836879432624,CenturyLink
"1412 Seven Falls Pl SW Albuquerque, NM 87121",albuquerque,NM,35.0547731,-106.7149472,350010047351,1653404478,EarthLink,49.95,15.0,0.75,Mbps,Copper,EarthLink Internet 15M,40.0,69.95,Slow (<25 Mbps),,0.938618925831202,least white,45341.0,8595.0,Middle-Lower,1533.718266545329,2.0,0.7853403141361257,CenturyLink
"1620 Don Santos St SW Albuquerque, NM 87121",albuquerque,NM,35.0526668,-106.7120199,350010047351,1653415306,EarthLink,49.95,15.0,0.75,Mbps,Copper,EarthLink Internet 15M,100.0,79.95,Slow (<25 Mbps),,0.938618925831202,least white,45341.0,8595.0,Middle-Lower,1533.718266545329,2.0,0.7853403141361257,CenturyLink
"1419 Dona Arcelia St SW Albuquerque, NM 87121",albuquerque,NM,35.0560457,-106.7134412,350010047351,1653264107,EarthLink,49.95,15.0,0.75,Mbps,Copper,EarthLink Internet 15M,80.0,69.95,Slow (<25 Mbps),,0.938618925831202,least white,45341.0,8595.0,Middle-Lower,1533.718266545329,2.0,0.7853403141361257,CenturyLink
"1424 Seven Falls Pl SW Albuquerque, NM 87121",albuquerque,NM,35.0544646,-106.7150883,350010047351,1651860436,EarthLink,49.95,15.0,0.75,Mbps,Copper,EarthLink Internet 15M,40.0,69.95,Slow (<25 Mbps),,0.938618925831202,least white,45341.0,8595.0,Middle-Lower,1533.718266545329,2.0,0.7853403141361257,CenturyLink
"1415 Dona Luisa St SW Albuquerque, NM 87121",albuquerque,NM,35.0557872,-106.711562,350010047351,1652248859,EarthLink,49.95,15.0,0.75,Mbps,Copper,EarthLink Internet 15M,40.0,69.95,Slow (<25 Mbps),,0.938618925831202,least white,45341.0,8595.0,Middle-Lower,1533.718266545329,2.0,0.7853403141361257,CenturyLink
"1412 Don Reynaldo St SW Albuquerque, NM 87121",albuquerque,NM,35.0559589,-106.7119396,350010047351,1652468532,EarthLink,49.95,15.0,0.75,Mbps,Copper,EarthLink Internet 15M,60.0,69.95,Slow (<25 Mbps),,0.938618925831202,least white,45341.0,8595.0,Middle-Lower,1533.718266545329,2.0,0.7853403141361257,CenturyLink
"1508 Seven Falls Pl SW Albuquerque, NM 87121",albuquerque,NM,35.0541561,-106.7152294,350010047351,1652709680,EarthLink,49.95,15.0,0.75,Mbps,Copper,EarthLink Internet 15M,40.0,69.95,Slow (<25 Mbps),,0.938618925831202,least white,45341.0,8595.0,Middle-Lower,1533.718266545329,2.0,0.7853403141361257,CenturyLink
"401 Montclaire Dr SE Albuquerque, NM 87108",albuquerque,NM,35.0752368,-106.5992618,350010005023,1650686427,EarthLink,49.95,15.0,0.75,Mbps,Copper,EarthLink Internet 15M,15.0,49.95,Slow (<25 Mbps),,0.2886497064579256,most white,37667.0,16269.0,Low,978.17389673087,2.0,0.7653429602888087,CenturyLink
"433 Montclaire Dr SE Albuquerque, NM 87108",albuquerque,NM,35.0739197,-106.5992684,350010005023,1650686413,EarthLink,49.95,10.0,1.0,Mbps,Copper,EarthLink Internet 10M,10.0,49.95,Slow (<25 Mbps),,0.2886497064579256,most white,37667.0,16269.0,Low,978.17389673087,2.0,0.7653429602888087,CenturyLink
"455 Valverde Dr SE Albuquerque, NM 87108",albuquerque,NM,35.0730806,-106.5966276,350010005023,1650686412,EarthLink,49.95,15.0,0.75,Mbps,Copper,EarthLink Internet 15M,15.0,49.95,Slow (<25 Mbps),,0.2886497064579256,most white,37667.0,16269.0,Low,978.17389673087,2.0,0.7653429602888087,CenturyLink
"423 Montclaire Dr SE Albuquerque, NM 87108",albuquerque,NM,35.0744101,-106.5992649,350010005023,1650686354,EarthLink,49.95,15.0,0.75,Mbps,Copper,EarthLink Internet 15M,15.0,49.95,Slow (<25 Mbps),,0.2886497064579256,most white,37667.0,16269.0,Low,978.17389673087,2.0,0.7653429602888087,CenturyLink
"406 Solano Dr SE Albuquerque, NM 87108",albuquerque,NM,35.0748512,-106.6018976,350010005023,1650686441,EarthLink,49.95,15.0,0.75,Mbps,Copper,EarthLink Internet 15M,100.0,79.95,Slow (<25 Mbps),,0.2886497064579256,most white,37667.0,16269.0,Low,978.17389673087,2.0,0.7653429602888087,CenturyLink
"401 Hermosa Dr SE Albuquerque, NM 87108",albuquerque,NM,35.0752727,-106.6037473,350010005023,1650686312,EarthLink,49.95,15.0,0.75,Mbps,Copper,EarthLink Internet 15M,100.0,79.95,Slow (<25 Mbps),,0.2886497064579256,most white,37667.0,16269.0,Low,978.17389673087,2.0,0.7653429602888087,CenturyLink
"411 Solano Dr SE Albuquerque, NM 87108",albuquerque,NM,35.0747176,-106.6025976,350010005023,1650686441,EarthLink,49.95,15.0,0.75,Mbps,Copper,EarthLink Internet 15M,80.0,69.95,Slow (<25 Mbps),,0.2886497064579256,most white,37667.0,16269.0,Low,978.17389673087,2.0,0.7653429602888087,CenturyLink
"417 Montclaire Dr SE Albuquerque, NM 87108",albuquerque,NM,35.0745733,-106.599264,350010005023,1650686429,EarthLink,49.95,15.0,0.75,Mbps,Copper,EarthLink Internet 15M,15.0,49.95,Slow (<25 Mbps),,0.2886497064579256,most white,37667.0,16269.0,Low,978.17389673087,2.0,0.7653429602888087,CenturyLink
"423 Aliso Dr SE Albuquerque, NM 87108",albuquerque,NM,35.0738959,-106.6014553,350010005023,1650686313,EarthLink,49.95,15.0,0.75,Mbps,Copper,EarthLink Internet 15M,40.0,69.95,Slow (<25 Mbps),,0.2886497064579256,most white,37667.0,16269.0,Low,978.17389673087,2.0,0.7653429602888087,CenturyLink
"330 Washington St SE Albuquerque, NM 87108",albuquerque,NM,35.0758081,-106.5950414,350010005023,1650686417,EarthLink,49.95,15.0,0.75,Mbps,Copper,EarthLink Internet 15M,100.0,79.95,Slow (<25 Mbps),,0.2886497064579256,most white,37667.0,16269.0,Low,978.17389673087,2.0,0.7653429602888087,CenturyLink
"318 Carlisle Blvd SE Albuquerque, NM 87106",albuquerque,NM,35.07587,-106.6041965,350010005023,1650686435,EarthLink,49.95,15.0,0.75,Mbps,Copper,EarthLink Internet 15M,100.0,79.95,Slow (<25 Mbps),,0.2886497064579256,most white,37667.0,16269.0,Low,978.17389673087,2.0,0.7653429602888087,CenturyLink
"306 Hermosa Dr SE Albuquerque, NM 87108",albuquerque,NM,35.0763842,-106.6030383,350010005023,1650686422,EarthLink,49.95,15.0,0.75,Mbps,Copper,EarthLink Internet 15M,100.0,79.95,Slow (<25 Mbps),,0.2886497064579256,most white,37667.0,16269.0,Low,978.17389673087,2.0,0.7653429602888087,CenturyLink
"316 Adams St SE Albuquerque, NM 87108",albuquerque,NM,35.0752961,-106.5941574,350010005023,1650686321,EarthLink,49.95,10.0,1.0,Mbps,Copper,EarthLink Internet 10M,60.0,69.95,Slow (<25 Mbps),,0.2886497064579256,most white,37667.0,16269.0,Low,978.17389673087,2.0,0.7653429602888087,CenturyLink
"401 San Mateo Blvd SE Albuquerque, NM 87108",albuquerque,NM,35.0736846,-106.5868858,350010005023,1650686413,EarthLink,49.95,15.0,0.75,Mbps,Copper,EarthLink Internet 15M,100.0,79.95,Slow (<25 Mbps),,0.2886497064579256,most white,37667.0,16269.0,Low,978.17389673087,2.0,0.7653429602888087,CenturyLink
"416 Aliso Dr SE Albuquerque, NM 87108",albuquerque,NM,35.0744218,-106.6007322,350010005023,1650686333,EarthLink,49.95,15.0,0.75,Mbps,Copper,EarthLink Internet 15M,80.0,69.95,Slow (<25 Mbps),,0.2886497064579256,most white,37667.0,16269.0,Low,978.17389673087,2.0,0.7653429602888087,CenturyLink
"312 Carlisle Blvd SE Albuquerque, NM 87106",albuquerque,NM,35.0764193,-106.604194,350010005023,1650686437,EarthLink,49.95,15.0,0.75,Mbps,Copper,EarthLink Internet 15M,100.0,79.95,Slow (<25 Mbps),,0.2886497064579256,most white,37667.0,16269.0,Low,978.17389673087,2.0,0.7653429602888087,CenturyLink
"109 Hermosa Dr SE Albuquerque, NM 87108",albuquerque,NM,35.0792755,-106.6037978,350010005023,1650686320,EarthLink,49.95,15.0,0.75,Mbps,Copper,EarthLink Internet 15M,60.0,69.95,Slow (<25 Mbps),,0.2886497064579256,most white,37667.0,16269.0,Low,978.17389673087,2.0,0.7653429602888087,CenturyLink
"420 Hermosa Dr SE Albuquerque, NM 87108",albuquerque,NM,35.074172,-106.6030531,350010005023,1650686414,EarthLink,49.95,15.0,0.75,Mbps,Copper,EarthLink Internet 15M,80.0,69.95,Slow (<25 Mbps),,0.2886497064579256,most white,37667.0,16269.0,Low,978.17389673087,2.0,0.7653429602888087,CenturyLink
"416 Montclaire Dr SE Albuquerque, NM 87108",albuquerque,NM,35.0745725,-106.5986753,350010005023,1650686431,EarthLink,49.95,10.0,1.0,Mbps,Copper,EarthLink Internet 10M,10.0,49.95,Slow (<25 Mbps),,0.2886497064579256,most white,37667.0,16269.0,Low,978.17389673087,2.0,0.7653429602888087,CenturyLink
"444 Sierra Dr SE Albuquerque, NM 87108",albuquerque,NM,35.0735774,-106.5977733,350010005023,1650686420,EarthLink,49.95,15.0,0.75,Mbps,Copper,EarthLink Internet 15M,15.0,49.95,Slow (<25 Mbps),,0.2886497064579256,most white,37667.0,16269.0,Low,978.17389673087,2.0,0.7653429602888087,CenturyLink
"450 Montclaire Dr SE Albuquerque, NM 87108",albuquerque,NM,35.0732666,-106.5986865,350010005023,1650686431,EarthLink,49.95,10.0,1.0,Mbps,Copper,EarthLink Internet 10M,10.0,49.95,Slow (<25 Mbps),,0.2886497064579256,most white,37667.0,16269.0,Low,978.17389673087,2.0,0.7653429602888087,CenturyLink
"428 Washington St NE Albuquerque, NM 87108",albuquerque,NM,35.0733429,-106.5950461,350010005023,1650686410,EarthLink,49.95,15.0,0.75,Mbps,Copper,EarthLink Internet 15M,100.0,79.95,Slow (<25 Mbps),,0.2886497064579256,most white,37667.0,16269.0,Low,978.17389673087,2.0,0.7653429602888087,CenturyLink
"218 Hermosa Dr SE Albuquerque, NM 87108",albuquerque,NM,35.0776347,-106.6030322,350010005023,1650686414,EarthLink,49.95,15.0,0.75,Mbps,Copper,EarthLink Internet 15M,100.0,79.95,Slow (<25 Mbps),,0.2886497064579256,most white,37667.0,16269.0,Low,978.17389673087,2.0,0.7653429602888087,CenturyLink
"408 Carlisle Blvd SE Albuquerque, NM 87106",albuquerque,NM,35.0747241,-106.6042012,350010005023,1650686446,EarthLink,49.95,15.0,0.75,Mbps,Copper,EarthLink Internet 15M,100.0,79.95,Slow (<25 Mbps),,0.2886497064579256,most white,37667.0,16269.0,Low,978.17389673087,2.0,0.7653429602888087,CenturyLink
"453 Graceland Dr SE Albuquerque, NM 87108",albuquerque,NM,35.0735768,-106.597425,350010005023,1650686430,EarthLink,49.95,15.0,0.75,Mbps,Copper,EarthLink Internet 15M,15.0,49.95,Slow (<25 Mbps),,0.2886497064579256,most white,37667.0,16269.0,Low,978.17389673087,2.0,0.7653429602888087,CenturyLink
"400 Morningside Dr SE Albuquerque, NM 87108",albuquerque,NM,35.0752364,-106.5996536,350010005023,1650686316,EarthLink,49.95,15.0,0.75,Mbps,Copper,EarthLink Internet 15M,15.0,49.95,Slow (<25 Mbps),,0.2886497064579256,most white,37667.0,16269.0,Low,978.17389673087,2.0,0.7653429602888087,CenturyLink
"314 Washington St SE Albuquerque, NM 87108",albuquerque,NM,35.0760822,-106.5950476,350010005023,1650686422,EarthLink,49.95,15.0,0.75,Mbps,Copper,EarthLink Internet 15M,100.0,79.95,Slow (<25 Mbps),,0.2886497064579256,most white,37667.0,16269.0,Low,978.17389673087,2.0,0.7653429602888087,CenturyLink
"318 Adams St SE Albuquerque, NM 87108",albuquerque,NM,35.0752294,-106.5940527,350010005023,1650686315,EarthLink,49.95,15.0,0.75,Mbps,Copper,EarthLink Internet 15M,80.0,69.95,Slow (<25 Mbps),,0.2886497064579256,most white,37667.0,16269.0,Low,978.17389673087,2.0,0.7653429602888087,CenturyLink
"444 Graceland Dr SE Albuquerque, NM 87108",albuquerque,NM,35.0738469,-106.596868,350010005023,1650686437,EarthLink,49.95,15.0,0.75,Mbps,Copper,EarthLink Internet 15M,15.0,49.95,Slow (<25 Mbps),,0.2886497064579256,most white,37667.0,16269.0,Low,978.17389673087,2.0,0.7653429602888087,CenturyLink
"451 Montclaire Dr SE Albuquerque, NM 87108",albuquerque,NM,35.0731084,-106.5992763,350010005023,1650686434,EarthLink,49.95,15.0,0.75,Mbps,Copper,EarthLink Internet 15M,15.0,49.95,Slow (<25 Mbps),,0.2886497064579256,most white,37667.0,16269.0,Low,978.17389673087,2.0,0.7653429602888087,CenturyLink
"416 Morningside Dr SE Albuquerque, NM 87108",albuquerque,NM,35.0739203,-106.5996653,350010005023,1650686439,EarthLink,49.95,10.0,1.0,Mbps,Copper,EarthLink Internet 10M,10.0,49.95,Slow (<25 Mbps),,0.2886497064579256,most white,37667.0,16269.0,Low,978.17389673087,2.0,0.7653429602888087,CenturyLink
"208 Carlisle Blvd SE Albuquerque, NM 87106",albuquerque,NM,35.0779108,-106.6041812,350010005023,1650686445,EarthLink,49.95,15.0,0.75,Mbps,Copper,EarthLink Internet 15M,100.0,79.95,Slow (<25 Mbps),,0.2886497064579256,most white,37667.0,16269.0,Low,978.17389673087,2.0,0.7653429602888087,CenturyLink
"420 Solano Dr SE Albuquerque, NM 87108",albuquerque,NM,35.074034,-106.6019015,350010005023,1650686437,EarthLink,49.95,15.0,0.75,Mbps,Copper,EarthLink Internet 15M,80.0,69.95,Slow (<25 Mbps),,0.2886497064579256,most white,37667.0,16269.0,Low,978.17389673087,2.0,0.7653429602888087,CenturyLink
"418 Aliso Dr SE Albuquerque, NM 87108",albuquerque,NM,35.0741505,-106.6007328,350010005023,1650686427,EarthLink,49.95,15.0,0.75,Mbps,Copper,EarthLink Internet 15M,100.0,79.95,Slow (<25 Mbps),,0.2886497064579256,most white,37667.0,16269.0,Low,978.17389673087,2.0,0.7653429602888087,CenturyLink
"316 Hermosa Dr SE Albuquerque, NM 87108",albuquerque,NM,35.0761121,-106.6030404,350010005023,1650686348,EarthLink,49.95,15.0,0.75,Mbps,Copper,EarthLink Internet 15M,100.0,79.95,Slow (<25 Mbps),,0.2886497064579256,most white,37667.0,16269.0,Low,978.17389673087,2.0,0.7653429602888087,CenturyLink
"316 Aliso Dr SE Albuquerque, NM 87108",albuquerque,NM,35.0762286,-106.6007172,350010005023,1650686423,EarthLink,49.95,15.0,0.75,Mbps,Copper,EarthLink Internet 15M,100.0,79.95,Slow (<25 Mbps),,0.2886497064579256,most white,37667.0,16269.0,Low,978.17389673087,2.0,0.7653429602888087,CenturyLink
"432 Valverde Dr SE Albuquerque, NM 87108",albuquerque,NM,35.0741224,-106.595974,350010005023,1650686314,EarthLink,49.95,15.0,0.75,Mbps,Copper,EarthLink Internet 15M,15.0,49.95,Slow (<25 Mbps),,0.2886497064579256,most white,37667.0,16269.0,Low,978.17389673087,2.0,0.7653429602888087,CenturyLink
"414 Carlisle Blvd SE Albuquerque, NM 87106",albuquerque,NM,35.074313,-106.6042013,350010005023,1650686445,EarthLink,49.95,15.0,0.75,Mbps,Copper,EarthLink Internet 15M,100.0,79.95,Slow (<25 Mbps),,0.2886497064579256,most white,37667.0,16269.0,Low,978.17389673087,2.0,0.7653429602888087,CenturyLink
"2005 Allegretto Trl NW Albuquerque, NM 87104",albuquerque,NM,35.1106899,-106.6686711,350010030013,1652706343,EarthLink,49.95,15.0,0.75,Mbps,Copper,EarthLink Internet 15M,15.0,49.95,Slow (<25 Mbps),,0.8719839142091153,least white,45556.0,8380.0,Middle-Lower,2260.410843305957,2.0,0.6013071895424836,CenturyLink
"1519 Marcato Ln NW Albuquerque, NM 87104",albuquerque,NM,35.1102964,-106.6695283,350010030013,1653343283,EarthLink,49.95,15.0,0.75,Mbps,Copper,EarthLink Internet 15M,60.0,69.95,Slow (<25 Mbps),,0.8719839142091153,least white,45556.0,8380.0,Middle-Lower,2260.410843305957,2.0,0.6013071895424836,CenturyLink
"1408 Marcato Ln NW Albuquerque, NM 87104",albuquerque,NM,35.109343,-106.6691927,350010030013,1652857615,EarthLink,49.95,10.0,1.0,Mbps,Copper,EarthLink Internet 10M,40.0,69.95,Slow (<25 Mbps),,0.8719839142091153,least white,45556.0,8380.0,Middle-Lower,2260.410843305957,2.0,0.6013071895424836,CenturyLink
"1909 Allegretto Trl NW Albuquerque, NM 87104",albuquerque,NM,35.1106334,-106.6680055,350010030013,1652457695,EarthLink,49.95,15.0,0.75,Mbps,Copper,EarthLink Internet 15M,15.0,49.95,Slow (<25 Mbps),,0.8719839142091153,least white,45556.0,8380.0,Middle-Lower,2260.410843305957,2.0,0.6013071895424836,CenturyLink
"303 Stanford Dr SE Albuquerque, NM 87106",albuquerque,NM,35.0770207,-106.6186792,350010017004,1650602427,EarthLink,49.95,15.0,0.75,Mbps,Copper,EarthLink Internet 15M,100.0,79.95,Slow (<25 Mbps),,0.3085553997194951,most white,22108.0,31828.0,Low,3005.2560368554823,2.0,0.7666666666666667,CenturyLink
"405 Stanford Dr SE Albuquerque, NM 87106",albuquerque,NM,35.0750642,-106.6186752,350010017004,1650602412,EarthLink,49.95,15.0,0.75,Mbps,Copper,EarthLink Internet 15M,100.0,79.95,Slow (<25 Mbps),,0.3085553997194951,most white,22108.0,31828.0,Low,3005.2560368554823,2.0,0.7666666666666667,CenturyLink
"2104 Coal Pl SE Albuquerque, NM 87106",albuquerque,NM,35.0747556,-106.6236957,350010017004,1650602413,EarthLink,49.95,15.0,0.75,Mbps,Copper,EarthLink Internet 15M,80.0,69.95,Slow (<25 Mbps),,0.3085553997194951,most white,22108.0,31828.0,Low,3005.2560368554823,2.0,0.7666666666666667,CenturyLink
"306 Harvard Dr SE Albuquerque, NM 87106",albuquerque,NM,35.0768828,-106.6204523,350010017004,1650602413,EarthLink,49.95,3.0,0.512,Mbps,Copper,EarthLink Internet 3M,3.0,49.95,Slow (<25 Mbps),,0.3085553997194951,most white,22108.0,31828.0,Low,3005.2560368554823,2.0,0.7666666666666667,CenturyLink
"412 Cornell Dr SE Albuquerque, NM 87106",albuquerque,NM,35.0746512,-106.6192026,350010017004,1650602411,EarthLink,49.95,15.0,0.75,Mbps,Copper,EarthLink Internet 15M,80.0,69.95,Slow (<25 Mbps),,0.3085553997194951,most white,22108.0,31828.0,Low,3005.2560368554823,2.0,0.7666666666666667,CenturyLink
"2125 Coal Pl SE Albuquerque, NM 87106",albuquerque,NM,35.0772755,-106.6228735,350010017004,1650602412,EarthLink,49.95,15.0,0.75,Mbps,Copper,EarthLink Internet 15M,80.0,69.95,Slow (<25 Mbps),,0.3085553997194951,most white,22108.0,31828.0,Low,3005.2560368554823,2.0,0.7666666666666667,CenturyLink
"413 Stanford Dr SE Albuquerque, NM 87106",albuquerque,NM,35.074513,-106.618684,350010017004,1650602412,EarthLink,49.95,15.0,0.75,Mbps,Copper,EarthLink Internet 15M,80.0,69.95,Slow (<25 Mbps),,0.3085553997194951,most white,22108.0,31828.0,Low,3005.2560368554823,2.0,0.7666666666666667,CenturyLink
"3123 Quincy St NE Albuquerque, NM 87110",albuquerque,NM,35.1193504,-106.5897461,350010002051,1653436894,EarthLink,49.95,10.0,1.0,Mbps,Copper,EarthLink Internet 10M,10.0,49.95,Slow (<25 Mbps),,0.5966257668711656,less white,34836.0,19100.0,Low,2275.5272627012464,2.0,0.8452722063037249,CenturyLink
"3006 Truman St NE Albuquerque, NM 87110",albuquerque,NM,35.1168868,-106.5873979,350010002051,1652148130,EarthLink,49.95,10.0,1.0,Mbps,Copper,EarthLink Internet 10M,40.0,69.95,Slow (<25 Mbps),,0.5966257668711656,less white,34836.0,19100.0,Low,2275.5272627012464,2.0,0.8452722063037249,CenturyLink
"3043 Monroe St NE Albuquerque, NM 87110",albuquerque,NM,35.1183605,-106.5906488,350010002051,1652818048,EarthLink,49.95,10.0,1.0,Mbps,Copper,EarthLink Internet 10M,40.0,69.95,Slow (<25 Mbps),,0.5966257668711656,less white,34836.0,19100.0,Low,2275.5272627012464,2.0,0.8452722063037249,CenturyLink
"3042 Truman St NE Albuquerque, NM 87110",albuquerque,NM,35.118358,-106.5874078,350010002051,1653267635,EarthLink,49.95,10.0,1.0,Mbps,Copper,EarthLink Internet 10M,10.0,49.95,Slow (<25 Mbps),,0.5966257668711656,less white,34836.0,19100.0,Low,2275.5272627012464,2.0,0.8452722063037249,CenturyLink
"3122 Monroe St NE Albuquerque, NM 87110",albuquerque,NM,35.119349,-106.5901048,350010002051,1652994113,EarthLink,49.95,10.0,1.0,Mbps,Copper,EarthLink Internet 10M,10.0,49.95,Slow (<25 Mbps),,0.5966257668711656,less white,34836.0,19100.0,Low,2275.5272627012464,2.0,0.8452722063037249,CenturyLink
"3039 Truman St NE Albuquerque, NM 87110",albuquerque,NM,35.1182076,-106.5879317,350010002051,1651864078,EarthLink,49.95,10.0,1.0,Mbps,Copper,EarthLink Internet 10M,10.0,49.95,Slow (<25 Mbps),,0.5966257668711656,less white,34836.0,19100.0,Low,2275.5272627012464,2.0,0.8452722063037249,CenturyLink
"3119 Quincy St NE Albuquerque, NM 87110",albuquerque,NM,35.1191869,-106.5897453,350010002051,1652403787,EarthLink,49.95,10.0,1.0,Mbps,Copper,EarthLink Internet 10M,10.0,49.95,Slow (<25 Mbps),,0.5966257668711656,less white,34836.0,19100.0,Low,2275.5272627012464,2.0,0.8452722063037249,CenturyLink
"3042 Monroe St NE Albuquerque, NM 87110",albuquerque,NM,35.1183658,-106.5900978,350010002051,1652814056,EarthLink,49.95,10.0,1.0,Mbps,Copper,EarthLink Internet 10M,40.0,69.95,Slow (<25 Mbps),,0.5966257668711656,less white,34836.0,19100.0,Low,2275.5272627012464,2.0,0.8452722063037249,CenturyLink
"3121 San Mateo Blvd NE Albuquerque, NM 87110",albuquerque,NM,35.1182575,-106.5869014,350010002051,1651662111,EarthLink,49.95,10.0,1.0,Mbps,Copper,EarthLink Internet 10M,40.0,69.95,Slow (<25 Mbps),,0.5966257668711656,less white,34836.0,19100.0,Low,2275.5272627012464,2.0,0.8452722063037249,CenturyLink
"3026 Manzano St NE Albuquerque, NM 87110",albuquerque,NM,35.1177076,-106.5882905,350010002051,1653314518,EarthLink,49.95,10.0,1.0,Mbps,Copper,EarthLink Internet 10M,10.0,49.95,Slow (<25 Mbps),,0.5966257668711656,less white,34836.0,19100.0,Low,2275.5272627012464,2.0,0.8452722063037249,CenturyLink
"3110 Manzano St NE Albuquerque, NM 87110",albuquerque,NM,35.118865,-106.5882963,350010002051,1651898415,EarthLink,49.95,10.0,1.0,Mbps,Copper,EarthLink Internet 10M,10.0,49.95,Slow (<25 Mbps),,0.5966257668711656,less white,34836.0,19100.0,Low,2275.5272627012464,2.0,0.8452722063037249,CenturyLink
"3034 Monroe St NE Albuquerque, NM 87110",albuquerque,NM,35.1180345,-106.5900953,350010002051,1650956473,EarthLink,49.95,10.0,1.0,Mbps,Copper,EarthLink Internet 10M,10.0,49.95,Slow (<25 Mbps),,0.5966257668711656,less white,34836.0,19100.0,Low,2275.5272627012464,2.0,0.8452722063037249,CenturyLink
"3026 Truman St NE Albuquerque, NM 87110",albuquerque,NM,35.1176974,-106.5874037,350010002051,1650938445,EarthLink,49.95,10.0,1.0,Mbps,Copper,EarthLink Internet 10M,40.0,69.95,Slow (<25 Mbps),,0.5966257668711656,less white,34836.0,19100.0,Low,2275.5272627012464,2.0,0.8452722063037249,CenturyLink
"3111 Quincy St NE Albuquerque, NM 87110",albuquerque,NM,35.1188588,-106.5897434,350010002051,1652857411,EarthLink,49.95,10.0,1.0,Mbps,Copper,EarthLink Internet 10M,10.0,49.95,Slow (<25 Mbps),,0.5966257668711656,less white,34836.0,19100.0,Low,2275.5272627012464,2.0,0.8452722063037249,CenturyLink
"3031 Quincy St NE Albuquerque, NM 87110",albuquerque,NM,35.1178674,-106.5897379,350010002051,1651705344,EarthLink,49.95,10.0,1.0,Mbps,Copper,EarthLink Internet 10M,10.0,49.95,Slow (<25 Mbps),,0.5966257668711656,less white,34836.0,19100.0,Low,2275.5272627012464,2.0,0.8452722063037249,CenturyLink
"3130 Manzano St NE Albuquerque, NM 87110",albuquerque,NM,35.1196922,-106.5883,350010002051,1653339672,EarthLink,49.95,10.0,1.0,Mbps,Copper,EarthLink Internet 10M,10.0,49.95,Slow (<25 Mbps),,0.5966257668711656,less white,34836.0,19100.0,Low,2275.5272627012464,2.0,0.8452722063037249,CenturyLink
"1140 Stutz Dr NE Albuquerque, NM 87123",albuquerque,NM,35.0846774,-106.4931795,350010007111,1652179714,EarthLink,49.95,15.0,0.75,Mbps,Copper,EarthLink Internet 15M,15.0,49.95,Slow (<25 Mbps),,0.3359683794466403,most white,62083.0,-8147.0,Middle-Upper,1437.1513274904328,2.0,0.803088803088803,CenturyLink
"905 Oro Real NE Albuquerque, NM 87123",albuquerque,NM,35.0807306,-106.4860192,350010007111,1653264162,EarthLink,49.95,15.0,0.75,Mbps,Copper,EarthLink Internet 15M,40.0,69.95,Slow (<25 Mbps),,0.3359683794466403,most white,62083.0,-8147.0,Middle-Upper,1437.1513274904328,2.0,0.803088803088803,CenturyLink
"811 Oro Real NE Albuquerque, NM 87123",albuquerque,NM,35.0800823,-106.4851218,350010007111,1652069089,EarthLink,49.95,15.0,0.75,Mbps,Copper,EarthLink Internet 15M,40.0,69.95,Slow (<25 Mbps),,0.3359683794466403,most white,62083.0,-8147.0,Middle-Upper,1437.1513274904328,2.0,0.803088803088803,CenturyLink
"1023 Jewel Pl NE Albuquerque, NM 87123",albuquerque,NM,35.08342,-106.4928142,350010007111,1652079681,EarthLink,49.95,15.0,0.75,Mbps,Copper,EarthLink Internet 15M,60.0,69.95,Slow (<25 Mbps),,0.3359683794466403,most white,62083.0,-8147.0,Middle-Upper,1437.1513274904328,2.0,0.803088803088803,CenturyLink
"13820 Vidal Pl NE Albuquerque, NM 87123",albuquerque,NM,35.080031,-106.4956885,350010007111,1651723610,EarthLink,49.95,15.0,0.75,Mbps,Copper,EarthLink Internet 15M,15.0,49.95,Slow (<25 Mbps),,0.3359683794466403,most white,62083.0,-8147.0,Middle-Upper,1437.1513274904328,2.0,0.803088803088803,CenturyLink
"13923 Jason Pl NE Albuquerque, NM 87123",albuquerque,NM,35.0826525,-106.494397,350010007111,1653480101,EarthLink,49.95,15.0,0.75,Mbps,Copper,EarthLink Internet 15M,40.0,69.95,Slow (<25 Mbps),,0.3359683794466403,most white,62083.0,-8147.0,Middle-Upper,1437.1513274904328,2.0,0.803088803088803,CenturyLink
"916 Oro Real NE Albuquerque, NM 87123",albuquerque,NM,35.0816338,-106.4861342,350010007111,1651687335,EarthLink,49.95,15.0,0.75,Mbps,Copper,EarthLink Internet 15M,15.0,49.95,Slow (<25 Mbps),,0.3359683794466403,most white,62083.0,-8147.0,Middle-Upper,1437.1513274904328,2.0,0.803088803088803,CenturyLink
"1104 Granada Hills Ct NE Albuquerque, NM 87123",albuquerque,NM,35.0829016,-106.4958772,350010007111,1653231682,EarthLink,49.95,15.0,0.75,Mbps,Copper,EarthLink Internet 15M,15.0,49.95,Slow (<25 Mbps),,0.3359683794466403,most white,62083.0,-8147.0,Middle-Upper,1437.1513274904328,2.0,0.803088803088803,CenturyLink
"13904 Hope Ct NE Albuquerque, NM 87123",albuquerque,NM,35.0811501,-106.4951514,350010007111,1651604536,EarthLink,49.95,15.0,0.75,Mbps,Copper,EarthLink Internet 15M,40.0,69.95,Slow (<25 Mbps),,0.3359683794466403,most white,62083.0,-8147.0,Middle-Upper,1437.1513274904328,2.0,0.803088803088803,CenturyLink
"920 Oro Real NE Albuquerque, NM 87123",albuquerque,NM,35.0818075,-106.4862321,350010007111,1652130118,EarthLink,49.95,15.0,0.75,Mbps,Copper,EarthLink Internet 15M,15.0,49.95,Slow (<25 Mbps),,0.3359683794466403,most white,62083.0,-8147.0,Middle-Upper,1437.1513274904328,2.0,0.803088803088803,CenturyLink
"808 Piedra Vista Rd NE Albuquerque, NM 87123",albuquerque,NM,35.0810793,-106.4837426,350010007111,1652054573,EarthLink,49.95,15.0,0.75,Mbps,Copper,EarthLink Internet 15M,40.0,69.95,Slow (<25 Mbps),,0.3359683794466403,most white,62083.0,-8147.0,Middle-Upper,1437.1513274904328,2.0,0.803088803088803,CenturyLink
"809 Turner Dr NE Albuquerque, NM 87123",albuquerque,NM,35.0799531,-106.4893836,350010007111,1652256260,EarthLink,49.95,15.0,0.75,Mbps,Copper,EarthLink Internet 15M,80.0,69.95,Slow (<25 Mbps),,0.3359683794466403,most white,62083.0,-8147.0,Middle-Upper,1437.1513274904328,2.0,0.803088803088803,CenturyLink
"1119 Daskalos Dr NE Albuquerque, NM 87123",albuquerque,NM,35.0852617,-106.4864956,350010007111,1652579184,EarthLink,49.95,15.0,0.75,Mbps,Copper,EarthLink Internet 15M,40.0,69.95,Slow (<25 Mbps),,0.3359683794466403,most white,62083.0,-8147.0,Middle-Upper,1437.1513274904328,2.0,0.803088803088803,CenturyLink
"14412 Alene Ct NE Albuquerque, NM 87123",albuquerque,NM,35.0822155,-106.4851665,350010007111,1652094060,EarthLink,49.95,15.0,0.75,Mbps,Copper,EarthLink Internet 15M,40.0,69.95,Slow (<25 Mbps),,0.3359683794466403,most white,62083.0,-8147.0,Middle-Upper,1437.1513274904328,2.0,0.803088803088803,CenturyLink
"14204 Ciudad Ct NE Albuquerque, NM 87123",albuquerque,NM,35.085142,-106.4902328,350010007111,1652655678,EarthLink,49.95,15.0,0.75,Mbps,Copper,EarthLink Internet 15M,80.0,69.95,Slow (<25 Mbps),,0.3359683794466403,most white,62083.0,-8147.0,Middle-Upper,1437.1513274904328,2.0,0.803088803088803,CenturyLink
"1027 Oro Real NE Albuquerque, NM 87123",albuquerque,NM,35.083577,-106.4872384,350010007111,1653105782,EarthLink,49.95,15.0,0.75,Mbps,Copper,EarthLink Internet 15M,60.0,69.95,Slow (<25 Mbps),,0.3359683794466403,most white,62083.0,-8147.0,Middle-Upper,1437.1513274904328,2.0,0.803088803088803,CenturyLink
"1037 Lawrence Dr NE Albuquerque, NM 87123",albuquerque,NM,35.0842996,-106.4910251,350010007111,1652713417,EarthLink,49.95,15.0,0.75,Mbps,Copper,EarthLink Internet 15M,80.0,69.95,Slow (<25 Mbps),,0.3359683794466403,most white,62083.0,-8147.0,Middle-Upper,1437.1513274904328,2.0,0.803088803088803,CenturyLink
"1108 Lawrence Dr NE Albuquerque, NM 87123",albuquerque,NM,35.0850013,-106.4904839,350010007111,1653390131,EarthLink,49.95,15.0,0.75,Mbps,Copper,EarthLink Internet 15M,80.0,69.95,Slow (<25 Mbps),,0.3359683794466403,most white,62083.0,-8147.0,Middle-Upper,1437.1513274904328,2.0,0.803088803088803,CenturyLink
"1023 Oro Real NE Albuquerque, NM 87123",albuquerque,NM,35.083347,-106.4872526,350010007111,1653123689,EarthLink,49.95,15.0,0.75,Mbps,Copper,EarthLink Internet 15M,60.0,69.95,Slow (<25 Mbps),,0.3359683794466403,most white,62083.0,-8147.0,Middle-Upper,1437.1513274904328,2.0,0.803088803088803,CenturyLink
"1024 Hope Pl NE Albuquerque, NM 87123",albuquerque,NM,35.0822394,-106.4940378,350010007111,1652648698,EarthLink,49.95,15.0,0.75,Mbps,Copper,EarthLink Internet 15M,40.0,69.95,Slow (<25 Mbps),,0.3359683794466403,most white,62083.0,-8147.0,Middle-Upper,1437.1513274904328,2.0,0.803088803088803,CenturyLink
"1205 Monte Largo Ct NE Albuquerque, NM 87123",albuquerque,NM,35.0870664,-106.4901987,350010007111,1651006931,EarthLink,49.95,15.0,0.75,Mbps,Copper,EarthLink Internet 15M,100.0,79.95,Slow (<25 Mbps),,0.3359683794466403,most white,62083.0,-8147.0,Middle-Upper,1437.1513274904328,2.0,0.803088803088803,CenturyLink
"817 Hope Pl NE Albuquerque, NM 87123",albuquerque,NM,35.0802214,-106.4942191,350010007111,1651694474,EarthLink,49.95,15.0,0.75,Mbps,Copper,EarthLink Internet 15M,15.0,49.95,Slow (<25 Mbps),,0.3359683794466403,most white,62083.0,-8147.0,Middle-Upper,1437.1513274904328,2.0,0.803088803088803,CenturyLink
"1117 Lawrence Dr NE Albuquerque, NM 87123",albuquerque,NM,35.085549,-106.4907704,350010007111,1652972528,EarthLink,49.95,15.0,0.75,Mbps,Copper,EarthLink Internet 15M,80.0,69.95,Slow (<25 Mbps),,0.3359683794466403,most white,62083.0,-8147.0,Middle-Upper,1437.1513274904328,2.0,0.803088803088803,CenturyLink
"812 Hope Pl NE Albuquerque, NM 87123",albuquerque,NM,35.0800167,-106.4935951,350010007111,1653404715,EarthLink,49.95,15.0,0.75,Mbps,Copper,EarthLink Internet 15M,15.0,49.95,Slow (<25 Mbps),,0.3359683794466403,most white,62083.0,-8147.0,Middle-Upper,1437.1513274904328,2.0,0.803088803088803,CenturyLink
"1069 Jewel Pl NE Albuquerque, NM 87123",albuquerque,NM,35.0855009,-106.4922354,350010007111,1652621606,EarthLink,49.95,15.0,0.75,Mbps,Copper,EarthLink Internet 15M,40.0,69.95,Slow (<25 Mbps),,0.3359683794466403,most white,62083.0,-8147.0,Middle-Upper,1437.1513274904328,2.0,0.803088803088803,CenturyLink
"13905 Grady Ct NE Albuquerque, NM 87123",albuquerque,NM,35.0796297,-106.4950475,350010007111,1650967308,EarthLink,49.95,15.0,0.75,Mbps,Copper,EarthLink Internet 15M,40.0,69.95,Slow (<25 Mbps),,0.3359683794466403,most white,62083.0,-8147.0,Middle-Upper,1437.1513274904328,2.0,0.803088803088803,CenturyLink
"1008 Daskalos Dr NE Albuquerque, NM 87123",albuquerque,NM,35.0838485,-106.4854364,350010007111,1652623252,EarthLink,49.95,15.0,0.75,Mbps,Copper,EarthLink Internet 15M,40.0,69.95,Slow (<25 Mbps),,0.3359683794466403,most white,62083.0,-8147.0,Middle-Upper,1437.1513274904328,2.0,0.803088803088803,CenturyLink
"13921 Lima Pl NE Albuquerque, NM 87123",albuquerque,NM,35.0808367,-106.4944474,350010007111,1652288485,EarthLink,49.95,15.0,0.75,Mbps,Copper,EarthLink Internet 15M,40.0,69.95,Slow (<25 Mbps),,0.3359683794466403,most white,62083.0,-8147.0,Middle-Upper,1437.1513274904328,2.0,0.803088803088803,CenturyLink
"915 Piedra Larga Pl NE Albuquerque, NM 87123",albuquerque,NM,35.0821443,-106.486007,350010007111,1652472057,EarthLink,49.95,15.0,0.75,Mbps,Copper,EarthLink Internet 15M,40.0,69.95,Slow (<25 Mbps),,0.3359683794466403,most white,62083.0,-8147.0,Middle-Upper,1437.1513274904328,2.0,0.803088803088803,CenturyLink
"1105 Monte Largo Dr NE Albuquerque, NM 87123",albuquerque,NM,35.0856442,-106.4919197,350010007111,1652048221,EarthLink,49.95,15.0,0.75,Mbps,Copper,EarthLink Internet 15M,100.0,79.95,Slow (<25 Mbps),,0.3359683794466403,most white,62083.0,-8147.0,Middle-Upper,1437.1513274904328,2.0,0.803088803088803,CenturyLink
"908 Oro Real NE Albuquerque, NM 87123",albuquerque,NM,35.0811291,-106.4858105,350010007111,1652990521,EarthLink,49.95,15.0,0.75,Mbps,Copper,EarthLink Internet 15M,15.0,49.95,Slow (<25 Mbps),,0.3359683794466403,most white,62083.0,-8147.0,Middle-Upper,1437.1513274904328,2.0,0.803088803088803,CenturyLink
"804 Jewel Pl NE Albuquerque, NM 87123",albuquerque,NM,35.0796206,-106.4927578,350010007111,1651755741,EarthLink,49.95,15.0,0.75,Mbps,Copper,EarthLink Internet 15M,80.0,69.95,Slow (<25 Mbps),,0.3359683794466403,most white,62083.0,-8147.0,Middle-Upper,1437.1513274904328,2.0,0.803088803088803,CenturyLink
"908 Turner Dr NE Albuquerque, NM 87123",albuquerque,NM,35.0811584,-106.488834,350010007111,1653338992,EarthLink,49.95,15.0,0.75,Mbps,Copper,EarthLink Internet 15M,60.0,69.95,Slow (<25 Mbps),,0.3359683794466403,most white,62083.0,-8147.0,Middle-Upper,1437.1513274904328,2.0,0.803088803088803,CenturyLink
"13832 Grady Ct NE Albuquerque, NM 87123",albuquerque,NM,35.0793917,-106.4953033,350010007111,1652234422,EarthLink,49.95,15.0,0.75,Mbps,Copper,EarthLink Internet 15M,40.0,69.95,Slow (<25 Mbps),,0.3359683794466403,most white,62083.0,-8147.0,Middle-Upper,1437.1513274904328,2.0,0.803088803088803,CenturyLink
"904 Turner Dr NE Albuquerque, NM 87123",albuquerque,NM,35.0809598,-106.4888318,350010007111,1652943942,EarthLink,49.95,15.0,0.75,Mbps,Copper,EarthLink Internet 15M,60.0,69.95,Slow (<25 Mbps),,0.3359683794466403,most white,62083.0,-8147.0,Middle-Upper,1437.1513274904328,2.0,0.803088803088803,CenturyLink
"728 Supper Rock Dr NE Albuquerque, NM 87123",albuquerque,NM,35.0781086,-106.4846446,350010007111,1652252467,EarthLink,49.95,15.0,0.75,Mbps,Copper,EarthLink Internet 15M,40.0,69.95,Slow (<25 Mbps),,0.3359683794466403,most white,62083.0,-8147.0,Middle-Upper,1437.1513274904328,2.0,0.803088803088803,CenturyLink
"900 Turner Dr NE Albuquerque, NM 87123",albuquerque,NM,35.0805926,-106.4888398,350010007111,1653172358,EarthLink,49.95,15.0,0.75,Mbps,Copper,EarthLink Internet 15M,40.0,69.95,Slow (<25 Mbps),,0.3359683794466403,most white,62083.0,-8147.0,Middle-Upper,1437.1513274904328,2.0,0.803088803088803,CenturyLink
"14004 Troy Ct NE Albuquerque, NM 87123",albuquerque,NM,35.0794175,-106.493976,350010007111,1652180515,EarthLink,49.95,15.0,0.75,Mbps,Copper,EarthLink Internet 15M,15.0,49.95,Slow (<25 Mbps),,0.3359683794466403,most white,62083.0,-8147.0,Middle-Upper,1437.1513274904328,2.0,0.803088803088803,CenturyLink
"1132 Monte Largo Dr NE Albuquerque, NM 87123",albuquerque,NM,35.0863035,-106.4903119,350010007111,1652263541,EarthLink,49.95,15.0,0.75,Mbps,Copper,EarthLink Internet 15M,100.0,79.95,Slow (<25 Mbps),,0.3359683794466403,most white,62083.0,-8147.0,Middle-Upper,1437.1513274904328,2.0,0.803088803088803,CenturyLink
"1027 Jewel Pl NE Albuquerque, NM 87123",albuquerque,NM,35.0836119,-106.492815,350010007111,1652047345,EarthLink,49.95,15.0,0.75,Mbps,Copper,EarthLink Internet 15M,60.0,69.95,Slow (<25 Mbps),,0.3359683794466403,most white,62083.0,-8147.0,Middle-Upper,1437.1513274904328,2.0,0.803088803088803,CenturyLink
"1035 Oro Real NE Albuquerque, NM 87123",albuquerque,NM,35.0839885,-106.4874537,350010007111,1653343404,EarthLink,49.95,15.0,0.75,Mbps,Copper,EarthLink Internet 15M,40.0,69.95,Slow (<25 Mbps),,0.3359683794466403,most white,62083.0,-8147.0,Middle-Upper,1437.1513274904328,2.0,0.803088803088803,CenturyLink
"204 Parsifal St NE Albuquerque, NM 87123",albuquerque,NM,35.0748554,-106.5366227,350010007074,1653264031,EarthLink,49.95,15.0,0.75,Mbps,Copper,EarthLink Internet 15M,80.0,69.95,Slow (<25 Mbps),,0.9690893901420216,least white,35294.0,18642.0,Low,3045.0344569688555,2.0,0.6867816091954023,CenturyLink
"244 Parsifal St NE Albuquerque, NM 87123",albuquerque,NM,35.076228,-106.5366306,350010007074,1653433299,EarthLink,49.95,15.0,0.75,Mbps,Copper,EarthLink Internet 15M,80.0,69.95,Slow (<25 Mbps),,0.9690893901420216,least white,35294.0,18642.0,Low,3045.0344569688555,2.0,0.6867816091954023,CenturyLink
"125 Eubank Blvd NE Albuquerque, NM 87123",albuquerque,NM,35.0737537,-106.5327974,350010007074,1653098497,EarthLink,49.95,15.0,0.75,Mbps,Copper,EarthLink Internet 15M,80.0,69.95,Slow (<25 Mbps),,0.9690893901420216,least white,35294.0,18642.0,Low,3045.0344569688555,2.0,0.6867816091954023,CenturyLink
"201 Moon St NE Albuquerque, NM 87123",albuquerque,NM,35.0747231,-106.5417304,350010007074,1652468682,EarthLink,49.95,15.0,0.75,Mbps,Copper,EarthLink Internet 15M,100.0,79.95,Slow (<25 Mbps),,0.9690893901420216,least white,35294.0,18642.0,Low,3045.0344569688555,2.0,0.6867816091954023,CenturyLink
"209 Glorieta St NE Albuquerque, NM 87123",albuquerque,NM,35.07501,-106.5339259,350010007074,1652677221,EarthLink,49.95,15.0,0.75,Mbps,Copper,EarthLink Internet 15M,80.0,69.95,Slow (<25 Mbps),,0.9690893901420216,least white,35294.0,18642.0,Low,3045.0344569688555,2.0,0.6867816091954023,CenturyLink
"132 Conchas St NE Albuquerque, NM 87123",albuquerque,NM,35.0741481,-106.5354701,350010007074,1651773680,EarthLink,49.95,15.0,0.75,Mbps,Copper,EarthLink Internet 15M,60.0,69.95,Slow (<25 Mbps),,0.9690893901420216,least white,35294.0,18642.0,Low,3045.0344569688555,2.0,0.6867816091954023,CenturyLink
"233 Garcia St NE Albuquerque, NM 87123",albuquerque,NM,35.0758028,-106.5384845,350010007074,1652875274,EarthLink,49.95,15.0,0.75,Mbps,Copper,EarthLink Internet 15M,80.0,69.95,Slow (<25 Mbps),,0.9690893901420216,least white,35294.0,18642.0,Low,3045.0344569688555,2.0,0.6867816091954023,CenturyLink
"200 Espejo St NE Albuquerque, NM 87123",albuquerque,NM,35.0747337,-106.5343721,350010007074,1651813412,EarthLink,49.95,15.0,0.75,Mbps,Copper,EarthLink Internet 15M,80.0,69.95,Slow (<25 Mbps),,0.9690893901420216,least white,35294.0,18642.0,Low,3045.0344569688555,2.0,0.6867816091954023,CenturyLink
"241 Parsifal St NE Albuquerque, NM 87123",albuquerque,NM,35.0760836,-106.5373239,350010007074,1652634076,EarthLink,49.95,15.0,0.75,Mbps,Copper,EarthLink Internet 15M,80.0,69.95,Slow (<25 Mbps),,0.9690893901420216,least white,35294.0,18642.0,Low,3045.0344569688555,2.0,0.6867816091954023,CenturyLink
"212 Altez St NE Albuquerque, NM 87123",albuquerque,NM,35.0751138,-106.5389301,350010007074,1652195085,EarthLink,49.95,15.0,0.75,Mbps,Copper,EarthLink Internet 15M,80.0,69.95,Slow (<25 Mbps),,0.9690893901420216,least white,35294.0,18642.0,Low,3045.0344569688555,2.0,0.6867816091954023,CenturyLink
"200 General Somervell St NE Albuquerque, NM 87123",albuquerque,NM,35.0747276,-106.5421045,350010007074,1651849439,EarthLink,49.95,15.0,0.75,Mbps,Copper,EarthLink Internet 15M,100.0,79.95,Slow (<25 Mbps),,0.9690893901420216,least white,35294.0,18642.0,Low,3045.0344569688555,2.0,0.6867816091954023,CenturyLink
"243 Garcia St NE Albuquerque, NM 87123",albuquerque,NM,35.0760775,-106.5384866,350010007074,1652216447,EarthLink,49.95,15.0,0.75,Mbps,Copper,EarthLink Internet 15M,80.0,69.95,Slow (<25 Mbps),,0.9690893901420216,least white,35294.0,18642.0,Low,3045.0344569688555,2.0,0.6867816091954023,CenturyLink
"126 Glorieta St NE Albuquerque, NM 87123",albuquerque,NM,35.0737506,-106.5332611,350010007074,1651618878,EarthLink,49.95,15.0,0.75,Mbps,Copper,EarthLink Internet 15M,80.0,69.95,Slow (<25 Mbps),,0.9690893901420216,least white,35294.0,18642.0,Low,3045.0344569688555,2.0,0.6867816091954023,CenturyLink
"225 Conchas St NE Albuquerque, NM 87123",albuquerque,NM,35.0757203,-106.5361483,350010007074,1652799686,EarthLink,49.95,15.0,0.75,Mbps,Copper,EarthLink Internet 15M,80.0,69.95,Slow (<25 Mbps),,0.9690893901420216,least white,35294.0,18642.0,Low,3045.0344569688555,2.0,0.6867816091954023,CenturyLink
"204 Garcia St NE Albuquerque, NM 87123",albuquerque,NM,35.0748451,-106.5378054,350010007074,1652166240,EarthLink,49.95,15.0,0.75,Mbps,Copper,EarthLink Internet 15M,80.0,69.95,Slow (<25 Mbps),,0.9690893901420216,least white,35294.0,18642.0,Low,3045.0344569688555,2.0,0.6867816091954023,CenturyLink
"232 Moon St NE Albuquerque, NM 87123",albuquerque,NM,35.0757888,-106.5411406,350010007074,1651701662,EarthLink,49.95,15.0,0.75,Mbps,Copper,EarthLink Internet 15M,100.0,79.95,Slow (<25 Mbps),,0.9690893901420216,least white,35294.0,18642.0,Low,3045.0344569688555,2.0,0.6867816091954023,CenturyLink
"9323 Hondo Valley Pl SW Albuquerque, NM 87121",albuquerque,NM,35.0373823,-106.7334085,350010047383,1651579432,EarthLink,49.95,15.0,0.75,Mbps,Copper,EarthLink Internet 15M,80.0,69.95,Slow (<25 Mbps),,0.8931764705882353,least white,51466.0,2470.0,Middle-Lower,1802.5384831362985,2.0,0.8895027624309392,CenturyLink
"2815 Sundance Kid Dr SW Albuquerque, NM 87121",albuquerque,NM,35.0364755,-106.7292636,350010047383,1653282074,EarthLink,49.95,15.0,0.75,Mbps,Copper,EarthLink Internet 15M,100.0,79.95,Slow (<25 Mbps),,0.8931764705882353,least white,51466.0,2470.0,Middle-Lower,1802.5384831362985,2.0,0.8895027624309392,CenturyLink
"9500 Otero Mesa Rd SW Albuquerque, NM 87121",albuquerque,NM,35.0359413,-106.7347204,350010047383,1651683813,EarthLink,49.95,15.0,0.75,Mbps,Copper,EarthLink Internet 15M,80.0,69.95,Slow (<25 Mbps),,0.8931764705882353,least white,51466.0,2470.0,Middle-Lower,1802.5384831362985,2.0,0.8895027624309392,CenturyLink
"9405 Cook Ranch Pl SW Albuquerque, NM 87121",albuquerque,NM,35.038142,-106.7338145,350010047383,1652860889,EarthLink,49.95,10.0,1.0,Mbps,Copper,EarthLink Internet 10M,40.0,69.95,Slow (<25 Mbps),,0.8931764705882353,least white,51466.0,2470.0,Middle-Lower,1802.5384831362985,2.0,0.8895027624309392,CenturyLink
"9415 Valle Vidal Pl SW Albuquerque, NM 87121",albuquerque,NM,35.0367383,-106.7341868,350010047383,1653217491,EarthLink,49.95,15.0,0.75,Mbps,Copper,EarthLink Internet 15M,80.0,69.95,Slow (<25 Mbps),,0.8931764705882353,least white,51466.0,2470.0,Middle-Lower,1802.5384831362985,2.0,0.8895027624309392,CenturyLink
"9219 Hondo Valley Pl SW Albuquerque, NM 87121",albuquerque,NM,35.0372839,-106.7324913,350010047383,1652900653,EarthLink,49.95,15.0,0.75,Mbps,Copper,EarthLink Internet 15M,80.0,69.95,Slow (<25 Mbps),,0.8931764705882353,least white,51466.0,2470.0,Middle-Lower,1802.5384831362985,2.0,0.8895027624309392,CenturyLink
"9219 Valle Vidal Pl SW Albuquerque, NM 87121",albuquerque,NM,35.0365618,-106.7324915,350010047383,1653044477,EarthLink,49.95,15.0,0.75,Mbps,Copper,EarthLink Internet 15M,100.0,79.95,Slow (<25 Mbps),,0.8931764705882353,least white,51466.0,2470.0,Middle-Lower,1802.5384831362985,2.0,0.8895027624309392,CenturyLink
"2732 Butch Cassidy Dr SW Albuquerque, NM 87121",albuquerque,NM,35.0379941,-106.7306132,350010047383,1652414634,EarthLink,49.95,15.0,0.75,Mbps,Copper,EarthLink Internet 15M,100.0,79.95,Slow (<25 Mbps),,0.8931764705882353,least white,51466.0,2470.0,Middle-Lower,1802.5384831362985,2.0,0.8895027624309392,CenturyLink
"9208 Valle Vidal Pl SW Albuquerque, NM 87121",albuquerque,NM,35.0361127,-106.7323208,350010047383,1651780935,EarthLink,49.95,15.0,0.75,Mbps,Copper,EarthLink Internet 15M,100.0,79.95,Slow (<25 Mbps),,0.8931764705882353,least white,51466.0,2470.0,Middle-Lower,1802.5384831362985,2.0,0.8895027624309392,CenturyLink
"2839 Sundance Kid Dr SW Albuquerque, NM 87121",albuquerque,NM,35.0364476,-106.7287385,350010047383,1653444185,EarthLink,49.95,15.0,0.75,Mbps,Copper,EarthLink Internet 15M,100.0,79.95,Slow (<25 Mbps),,0.8931764705882353,least white,51466.0,2470.0,Middle-Lower,1802.5384831362985,2.0,0.8895027624309392,CenturyLink
"9419 Valle Caldera Rd SW Albuquerque, NM 87121",albuquerque,NM,35.0356378,-106.7344641,350010047383,1652278034,EarthLink,49.95,15.0,0.75,Mbps,Copper,EarthLink Internet 15M,80.0,69.95,Slow (<25 Mbps),,0.8931764705882353,least white,51466.0,2470.0,Middle-Lower,1802.5384831362985,2.0,0.8895027624309392,CenturyLink
"9400 Cook Ranch Pl SW Albuquerque, NM 87121",albuquerque,NM,35.0377081,-106.7337165,350010047383,1652115827,EarthLink,49.95,10.0,1.0,Mbps,Copper,EarthLink Internet 10M,60.0,69.95,Slow (<25 Mbps),,0.8931764705882353,least white,51466.0,2470.0,Middle-Lower,1802.5384831362985,2.0,0.8895027624309392,CenturyLink
"2768 Butch Cassidy Dr SW Albuquerque, NM 87121",albuquerque,NM,35.0369795,-106.7300228,350010047383,1651575894,EarthLink,49.95,15.0,0.75,Mbps,Copper,EarthLink Internet 15M,100.0,79.95,Slow (<25 Mbps),,0.8931764705882353,least white,51466.0,2470.0,Middle-Lower,1802.5384831362985,2.0,0.8895027624309392,CenturyLink
"8401 Billy The Kid Rd SW Albuquerque, NM 87121",albuquerque,NM,35.0382568,-106.7283088,350010047383,1652893274,EarthLink,49.95,15.0,0.75,Mbps,Copper,EarthLink Internet 15M,100.0,79.95,Slow (<25 Mbps),,0.8931764705882353,least white,51466.0,2470.0,Middle-Lower,1802.5384831362985,2.0,0.8895027624309392,CenturyLink
"2816 Jesse James Dr SW Albuquerque, NM 87121",albuquerque,NM,35.0361404,-106.7283355,350010047383,1651881742,EarthLink,49.95,15.0,0.75,Mbps,Copper,EarthLink Internet 15M,100.0,79.95,Slow (<25 Mbps),,0.8931764705882353,least white,51466.0,2470.0,Middle-Lower,1802.5384831362985,2.0,0.8895027624309392,CenturyLink
"9204 Valle Vidal Pl SW Albuquerque, NM 87121",albuquerque,NM,35.0360972,-106.7321718,350010047383,1652720486,EarthLink,49.95,15.0,0.75,Mbps,Copper,EarthLink Internet 15M,100.0,79.95,Slow (<25 Mbps),,0.8931764705882353,least white,51466.0,2470.0,Middle-Lower,1802.5384831362985,2.0,0.8895027624309392,CenturyLink
"9404 Hondo Valley Pl SW Albuquerque, NM 87121",albuquerque,NM,35.037003,-106.7338431,350010047383,1652371288,EarthLink,49.95,15.0,0.75,Mbps,Copper,EarthLink Internet 15M,100.0,79.95,Slow (<25 Mbps),,0.8931764705882353,least white,51466.0,2470.0,Middle-Lower,1802.5384831362985,2.0,0.8895027624309392,CenturyLink
"9315 Valle Vidal Pl SW Albuquerque, NM 87121",albuquerque,NM,35.0366452,-106.7332923,350010047383,1652922149,EarthLink,49.95,15.0,0.75,Mbps,Copper,EarthLink Internet 15M,100.0,79.95,Slow (<25 Mbps),,0.8931764705882353,least white,51466.0,2470.0,Middle-Lower,1802.5384831362985,2.0,0.8895027624309392,CenturyLink
"9504 Hondo Valley Pl SW Albuquerque, NM 87121",albuquerque,NM,35.0370976,-106.7347378,350010047383,1652990460,EarthLink,49.95,15.0,0.75,Mbps,Copper,EarthLink Internet 15M,80.0,69.95,Slow (<25 Mbps),,0.8931764705882353,least white,51466.0,2470.0,Middle-Lower,1802.5384831362985,2.0,0.8895027624309392,CenturyLink
"9309 Valle Vidal Pl SW Albuquerque, NM 87121",albuquerque,NM,35.0366322,-106.7331345,350010047383,1652133818,EarthLink,49.95,15.0,0.75,Mbps,Copper,EarthLink Internet 15M,100.0,79.95,Slow (<25 Mbps),,0.8931764705882353,least white,51466.0,2470.0,Middle-Lower,1802.5384831362985,2.0,0.8895027624309392,CenturyLink
"2801 Butch Cassidy Dr SW Albuquerque, NM 87121",albuquerque,NM,35.0362172,-106.7301234,350010047383,1651673339,EarthLink,49.95,15.0,0.75,Mbps,Copper,EarthLink Internet 15M,100.0,79.95,Slow (<25 Mbps),,0.8931764705882353,least white,51466.0,2470.0,Middle-Lower,1802.5384831362985,2.0,0.8895027624309392,CenturyLink
"9416 Otero Mesa Rd SW Albuquerque, NM 87121",albuquerque,NM,35.0359103,-106.7344222,350010047383,1652007688,EarthLink,49.95,15.0,0.75,Mbps,Copper,EarthLink Internet 15M,80.0,69.95,Slow (<25 Mbps),,0.8931764705882353,least white,51466.0,2470.0,Middle-Lower,1802.5384831362985,2.0,0.8895027624309392,CenturyLink
"9519 Valle Caldera Rd SW Albuquerque, NM 87121",albuquerque,NM,35.0357309,-106.7353587,350010047383,1652093228,EarthLink,49.95,15.0,0.75,Mbps,Copper,EarthLink Internet 15M,80.0,69.95,Slow (<25 Mbps),,0.8931764705882353,least white,51466.0,2470.0,Middle-Lower,1802.5384831362985,2.0,0.8895027624309392,CenturyLink
"7301 Bluewater Rd NW Albuquerque, NM 87121",albuquerque,NM,35.0853182,-106.719821,350010047411,1650559283,EarthLink,49.95,10.0,1.0,Mbps,Copper,EarthLink Internet 10M,40.0,69.95,Slow (<25 Mbps),,0.9243397573162028,least white,15518.0,38418.0,Low,840.4369552306853,2.0,0.3866877971473851,CenturyLink
"303 Coors Blvd NW Albuquerque, NM 87121",albuquerque,NM,35.0837358,-106.7112051,350010047411,1650559222,EarthLink,49.95,10.0,1.0,Mbps,Copper,EarthLink Internet 10M,10.0,49.95,Slow (<25 Mbps),,0.9243397573162028,least white,15518.0,38418.0,Low,840.4369552306853,2.0,0.3866877971473851,CenturyLink
"300 Unser Blvd NW Albuquerque, NM 87121",albuquerque,NM,35.0800114,-106.7231097,350010047411,1650559246,EarthLink,49.95,3.0,0.512,Mbps,Copper,EarthLink Internet 3M,3.0,49.95,Slow (<25 Mbps),,0.9243397573162028,least white,15518.0,38418.0,Low,840.4369552306853,2.0,0.3866877971473851,CenturyLink
"301 Coors Blvd NW Albuquerque, NM 87121",albuquerque,NM,35.0833135,-106.7112611,350010047411,1650559218,EarthLink,49.95,10.0,1.0,Mbps,Copper,EarthLink Internet 10M,10.0,49.95,Slow (<25 Mbps),,0.9243397573162028,least white,15518.0,38418.0,Low,840.4369552306853,2.0,0.3866877971473851,CenturyLink
"485 Coors Blvd NW Albuquerque, NM 87121",albuquerque,NM,35.0908149,-106.7115133,350010047411,1650559336,EarthLink,49.95,10.0,1.0,Mbps,Copper,EarthLink Internet 10M,40.0,69.95,Slow (<25 Mbps),,0.9243397573162028,least white,15518.0,38418.0,Low,840.4369552306853,2.0,0.3866877971473851,CenturyLink
"7550 Meridian Pl NW Albuquerque, NM 87121",albuquerque,NM,35.0848744,-106.7230542,350010047411,1650559358,EarthLink,49.95,10.0,1.0,Mbps,Copper,EarthLink Internet 10M,40.0,69.95,Slow (<25 Mbps),,0.9243397573162028,least white,15518.0,38418.0,Low,840.4369552306853,2.0,0.3866877971473851,CenturyLink
"465 Coors Blvd NW Albuquerque, NM 87121",albuquerque,NM,35.0896646,-106.7116541,350010047411,1650559256,EarthLink,49.95,10.0,1.0,Mbps,Copper,EarthLink Internet 10M,40.0,69.95,Slow (<25 Mbps),,0.9243397573162028,least white,15518.0,38418.0,Low,840.4369552306853,2.0,0.3866877971473851,CenturyLink
"361 Coors Blvd NW Albuquerque, NM 87121",albuquerque,NM,35.0858137,-106.7112445,350010047411,1650559373,EarthLink,49.95,15.0,0.75,Mbps,Copper,EarthLink Internet 15M,80.0,69.95,Slow (<25 Mbps),,0.9243397573162028,least white,15518.0,38418.0,Low,840.4369552306853,2.0,0.3866877971473851,CenturyLink
"101 Coors Blvd NW Albuquerque, NM 87121",albuquerque,NM,35.0803418,-106.7112666,350010047411,1650559277,EarthLink,49.95,10.0,1.0,Mbps,Copper,EarthLink Internet 10M,10.0,49.95,Slow (<25 Mbps),,0.9243397573162028,least white,15518.0,38418.0,Low,840.4369552306853,2.0,0.3866877971473851,CenturyLink
"7700 Los Volcanes Rd NW Albuquerque, NM 87121",albuquerque,NM,35.0865184,-106.726394,350010047411,1650559251,EarthLink,49.95,15.0,0.75,Mbps,Copper,EarthLink Internet 15M,15.0,49.95,Slow (<25 Mbps),,0.9243397573162028,least white,15518.0,38418.0,Low,840.4369552306853,2.0,0.3866877971473851,CenturyLink
"455 Coors Blvd NW Albuquerque, NM 87121",albuquerque,NM,35.0890106,-106.7111342,350010047411,1650559304,EarthLink,49.95,15.0,0.75,Mbps,Copper,EarthLink Internet 15M,15.0,49.95,Slow (<25 Mbps),,0.9243397573162028,least white,15518.0,38418.0,Low,840.4369552306853,2.0,0.3866877971473851,CenturyLink
"7500 Los Volcanes Rd NW Albuquerque, NM 87121",albuquerque,NM,35.0876073,-106.7239524,350010047411,1650559225,EarthLink,49.95,15.0,0.75,Mbps,Copper,EarthLink Internet 15M,15.0,49.95,Slow (<25 Mbps),,0.9243397573162028,least white,15518.0,38418.0,Low,840.4369552306853,2.0,0.3866877971473851,CenturyLink
"201 Coors Blvd NW Albuquerque, NM 87121",albuquerque,NM,35.0826958,-106.7112668,350010047411,1650559315,EarthLink,49.95,10.0,1.0,Mbps,Copper,EarthLink Internet 10M,10.0,49.95,Slow (<25 Mbps),,0.9243397573162028,least white,15518.0,38418.0,Low,840.4369552306853,2.0,0.3866877971473851,CenturyLink
"121 Coors Blvd NW Albuquerque, NM 87121",albuquerque,NM,35.0810643,-106.7112897,350010047411,1650559277,EarthLink,49.95,10.0,1.0,Mbps,Copper,EarthLink Internet 10M,10.0,49.95,Slow (<25 Mbps),,0.9243397573162028,least white,15518.0,38418.0,Low,840.4369552306853,2.0,0.3866877971473851,CenturyLink
"401 Coors Blvd NW Albuquerque, NM 87121",albuquerque,NM,35.0867354,-106.7117729,350010047411,1650559367,EarthLink,49.95,15.0,0.75,Mbps,Copper,EarthLink Internet 15M,100.0,79.95,Slow (<25 Mbps),,0.9243397573162028,least white,15518.0,38418.0,Low,840.4369552306853,2.0,0.3866877971473851,CenturyLink
"530 Airport Dr NW Albuquerque, NM 87121",albuquerque,NM,35.0881512,-106.7179518,350010047411,1650559328,EarthLink,49.95,15.0,0.75,Mbps,Copper,EarthLink Internet 15M,80.0,69.95,Slow (<25 Mbps),,0.9243397573162028,least white,15518.0,38418.0,Low,840.4369552306853,2.0,0.3866877971473851,CenturyLink
"7551 Bluewater Rd NW Albuquerque, NM 87121",albuquerque,NM,35.084068,-106.7224879,350010047411,1650559311,EarthLink,49.95,10.0,1.0,Mbps,Copper,EarthLink Internet 10M,40.0,69.95,Slow (<25 Mbps),,0.9243397573162028,least white,15518.0,38418.0,Low,840.4369552306853,2.0,0.3866877971473851,CenturyLink
"6404 Los Volcanes Rd NW Albuquerque, NM 87121",albuquerque,NM,35.0907996,-106.7125399,350010047411,1650559350,EarthLink,49.95,15.0,0.75,Mbps,Copper,EarthLink Internet 15M,100.0,79.95,Slow (<25 Mbps),,0.9243397573162028,least white,15518.0,38418.0,Low,840.4369552306853,2.0,0.3866877971473851,CenturyLink
"555 Gallatin Pl NW Albuquerque, NM 87121",albuquerque,NM,35.0881488,-106.7228242,350010047411,1650559370,EarthLink,49.95,10.0,1.0,Mbps,Copper,EarthLink Internet 10M,40.0,69.95,Slow (<25 Mbps),,0.9243397573162028,least white,15518.0,38418.0,Low,840.4369552306853,2.0,0.3866877971473851,CenturyLink
"7300 Meridian Pl NW Albuquerque, NM 87121",albuquerque,NM,35.0861653,-106.7202868,350010047411,1650559338,EarthLink,49.95,10.0,1.0,Mbps,Copper,EarthLink Internet 10M,10.0,49.95,Slow (<25 Mbps),,0.9243397573162028,least white,15518.0,38418.0,Low,840.4369552306853,2.0,0.3866877971473851,CenturyLink
"2530 Elfego Rd NW Albuquerque, NM 87107",albuquerque,NM,35.1374992,-106.6725788,350010031003,1652152024,EarthLink,49.95,15.0,0.75,Mbps,Copper,EarthLink Internet 15M,100.0,79.95,Slow (<25 Mbps),,0.1911554921540656,most white,85795.0,-31859.0,Upper Income,316.02869594658256,2.0,0.7671232876712328,CenturyLink
"2410 Griegos Rd NW Albuquerque, NM 87107",albuquerque,NM,35.1370203,-106.6699488,350010031003,1653139874,EarthLink,49.95,15.0,0.75,Mbps,Copper,EarthLink Internet 15M,100.0,79.95,Slow (<25 Mbps),,0.1911554921540656,most white,85795.0,-31859.0,Upper Income,316.02869594658256,2.0,0.7671232876712328,CenturyLink
"2301 Dietz Pl NW Albuquerque, NM 87107",albuquerque,NM,35.1416224,-106.6710286,350010031003,1652907671,EarthLink,49.95,15.0,0.75,Mbps,Copper,EarthLink Internet 15M,100.0,79.95,Slow (<25 Mbps),,0.1911554921540656,most white,85795.0,-31859.0,Upper Income,316.02869594658256,2.0,0.7671232876712328,CenturyLink
"4012 Ivy Lawn Ct NW Albuquerque, NM 87107",albuquerque,NM,35.1401908,-106.6724052,350010031003,1651770038,EarthLink,49.95,15.0,0.75,Mbps,Copper,EarthLink Internet 15M,100.0,79.95,Slow (<25 Mbps),,0.1911554921540656,most white,85795.0,-31859.0,Upper Income,316.02869594658256,2.0,0.7671232876712328,CenturyLink
"2524 Griegos Pl NW Albuquerque, NM 87107",albuquerque,NM,35.137934,-106.6726454,350010031003,1651734953,EarthLink,49.95,15.0,0.75,Mbps,Copper,EarthLink Internet 15M,100.0,79.95,Slow (<25 Mbps),,0.1911554921540656,most white,85795.0,-31859.0,Upper Income,316.02869594658256,2.0,0.7671232876712328,CenturyLink
"3817 Pedroncelli Rd NW Albuquerque, NM 87107",albuquerque,NM,35.1370344,-106.670974,350010031003,1651564871,EarthLink,49.95,15.0,0.75,Mbps,Copper,EarthLink Internet 15M,100.0,79.95,Slow (<25 Mbps),,0.1911554921540656,most white,85795.0,-31859.0,Upper Income,316.02869594658256,2.0,0.7671232876712328,CenturyLink
"2481 Elfego Rd NW Albuquerque, NM 87107",albuquerque,NM,35.1361524,-106.6734985,350010031003,1651914118,EarthLink,49.95,15.0,0.75,Mbps,Copper,EarthLink Internet 15M,15.0,49.95,Slow (<25 Mbps),,0.1911554921540656,most white,85795.0,-31859.0,Upper Income,316.02869594658256,2.0,0.7671232876712328,CenturyLink
"2558 Elfego Rd NW Albuquerque, NM 87107",albuquerque,NM,35.1370225,-106.6747164,350010031003,1652317259,EarthLink,49.95,15.0,0.75,Mbps,Copper,EarthLink Internet 15M,100.0,79.95,Slow (<25 Mbps),,0.1911554921540656,most white,85795.0,-31859.0,Upper Income,316.02869594658256,2.0,0.7671232876712328,CenturyLink
"2531 Griegos Pl NW Albuquerque, NM 87107",albuquerque,NM,35.1385336,-106.6729897,350010031003,1652654004,EarthLink,49.95,15.0,0.75,Mbps,Copper,EarthLink Internet 15M,100.0,79.95,Slow (<25 Mbps),,0.1911554921540656,most white,85795.0,-31859.0,Upper Income,316.02869594658256,2.0,0.7671232876712328,CenturyLink
"4120 Ravenwood Pl NW Albuquerque, NM 87107",albuquerque,NM,35.1416512,-106.6695732,350010031003,1650999760,EarthLink,49.95,15.0,0.75,Mbps,Copper,EarthLink Internet 15M,15.0,49.95,Slow (<25 Mbps),,0.1911554921540656,most white,85795.0,-31859.0,Upper Income,316.02869594658256,2.0,0.7671232876712328,CenturyLink
"2232 Dietz Pl NW Albuquerque, NM 87107",albuquerque,NM,35.141301,-106.6719361,350010031003,1652839305,EarthLink,49.95,15.0,0.75,Mbps,Copper,EarthLink Internet 15M,100.0,79.95,Slow (<25 Mbps),,0.1911554921540656,most white,85795.0,-31859.0,Upper Income,316.02869594658256,2.0,0.7671232876712328,CenturyLink
"2217 Dietz Pl NW Albuquerque, NM 87107",albuquerque,NM,35.1401901,-106.6711714,350010031003,1652389603,EarthLink,49.95,15.0,0.75,Mbps,Copper,EarthLink Internet 15M,100.0,79.95,Slow (<25 Mbps),,0.1911554921540656,most white,85795.0,-31859.0,Upper Income,316.02869594658256,2.0,0.7671232876712328,CenturyLink
"2414 Griegos Rd NW Albuquerque, NM 87107",albuquerque,NM,35.1371718,-106.670402,350010031003,1652655816,EarthLink,49.95,15.0,0.75,Mbps,Copper,EarthLink Internet 15M,100.0,79.95,Slow (<25 Mbps),,0.1911554921540656,most white,85795.0,-31859.0,Upper Income,316.02869594658256,2.0,0.7671232876712328,CenturyLink
"3610 Trellis Dr NW Albuquerque, NM 87107",albuquerque,NM,35.1281389,-106.6809842,350010031003,1652234490,EarthLink,49.95,10.0,1.0,Mbps,Copper,EarthLink Internet 10M,40.0,69.95,Slow (<25 Mbps),,0.1911554921540656,most white,85795.0,-31859.0,Upper Income,316.02869594658256,2.0,0.7671232876712328,CenturyLink
"2301 Dietz Farm Rd NW Albuquerque, NM 87107",albuquerque,NM,35.1428008,-106.6692759,350010031003,1651795699,EarthLink,49.95,15.0,0.75,Mbps,Copper,EarthLink Internet 15M,100.0,79.95,Slow (<25 Mbps),,0.1911554921540656,most white,85795.0,-31859.0,Upper Income,316.02869594658256,2.0,0.7671232876712328,CenturyLink
"5206 Chambers Pl NE Albuquerque, NM 87111",albuquerque,NM,35.1382542,-106.5424793,350010037173,1650653637,EarthLink,49.95,15.0,0.75,Mbps,Copper,EarthLink Internet 15M,100.0,79.95,Slow (<25 Mbps),,0.3568702290076336,most white,,,,2268.3491699313868,2.0,0.726457399103139,CenturyLink
"8809 Chambers Pl NE Albuquerque, NM 87111",albuquerque,NM,35.1382325,-106.5440336,350010037173,1650653676,EarthLink,49.95,15.0,0.75,Mbps,Copper,EarthLink Internet 15M,100.0,79.95,Slow (<25 Mbps),,0.3568702290076336,most white,,,,2268.3491699313868,2.0,0.726457399103139,CenturyLink
"5501 Moon St NE Albuquerque, NM 87111",albuquerque,NM,35.1404207,-106.5428981,350010037173,1650653655,EarthLink,49.95,15.0,0.75,Mbps,Copper,EarthLink Internet 15M,80.0,69.95,Slow (<25 Mbps),,0.3568702290076336,most white,,,,2268.3491699313868,2.0,0.726457399103139,CenturyLink
"8703 Chambers Pl NE Albuquerque, NM 87111",albuquerque,NM,35.1382228,-106.5452458,350010037173,1650653678,EarthLink,49.95,15.0,0.75,Mbps,Copper,EarthLink Internet 15M,100.0,79.95,Slow (<25 Mbps),,0.3568702290076336,most white,,,,2268.3491699313868,2.0,0.726457399103139,CenturyLink
"8700 Chambers Pl NE Albuquerque, NM 87111",albuquerque,NM,35.1377606,-106.5455515,350010037173,1650653655,EarthLink,49.95,15.0,0.75,Mbps,Copper,EarthLink Internet 15M,100.0,79.95,Slow (<25 Mbps),,0.3568702290076336,most white,,,,2268.3491699313868,2.0,0.726457399103139,CenturyLink
"8805 Chambers Pl NE Albuquerque, NM 87111",albuquerque,NM,35.1382317,-106.5443012,350010037173,1650653639,EarthLink,49.95,15.0,0.75,Mbps,Copper,EarthLink Internet 15M,100.0,79.95,Slow (<25 Mbps),,0.3568702290076336,most white,,,,2268.3491699313868,2.0,0.726457399103139,CenturyLink
"8900 Spain Rd NE Albuquerque, NM 87111",albuquerque,NM,35.1386244,-106.5439015,350010037173,1650653646,EarthLink,49.95,15.0,0.75,Mbps,Copper,EarthLink Internet 15M,100.0,79.95,Slow (<25 Mbps),,0.3568702290076336,most white,,,,2268.3491699313868,2.0,0.726457399103139,CenturyLink
"8502 Chambers Pl NE Albuquerque, NM 87111",albuquerque,NM,35.1383031,-106.5469523,350010037173,1650653670,EarthLink,49.95,15.0,0.75,Mbps,Copper,EarthLink Internet 15M,100.0,79.95,Slow (<25 Mbps),,0.3568702290076336,most white,,,,2268.3491699313868,2.0,0.726457399103139,CenturyLink
"8909 Chambers Pl NE Albuquerque, NM 87111",albuquerque,NM,35.1382352,-106.543097,350010037173,1650653678,EarthLink,49.95,15.0,0.75,Mbps,Copper,EarthLink Internet 15M,100.0,79.95,Slow (<25 Mbps),,0.3568702290076336,most white,,,,2268.3491699313868,2.0,0.726457399103139,CenturyLink
"8912 Spain Rd NE Albuquerque, NM 87111",albuquerque,NM,35.1386268,-106.5430987,350010037173,1650653646,EarthLink,49.95,15.0,0.75,Mbps,Copper,EarthLink Internet 15M,100.0,79.95,Slow (<25 Mbps),,0.3568702290076336,most white,,,,2268.3491699313868,2.0,0.726457399103139,CenturyLink
"8806 Chambers Pl NE Albuquerque, NM 87111",albuquerque,NM,35.1377679,-106.5441928,350010037173,1650653670,EarthLink,49.95,15.0,0.75,Mbps,Copper,EarthLink Internet 15M,100.0,79.95,Slow (<25 Mbps),,0.3568702290076336,most white,,,,2268.3491699313868,2.0,0.726457399103139,CenturyLink
"8910 Chambers Pl NE Albuquerque, NM 87111",albuquerque,NM,35.1377751,-106.5429812,350010037173,1650653637,EarthLink,49.95,15.0,0.75,Mbps,Copper,EarthLink Internet 15M,100.0,79.95,Slow (<25 Mbps),,0.3568702290076336,most white,,,,2268.3491699313868,2.0,0.726457399103139,CenturyLink
"935 18th St NW Albuquerque, NM 87104",albuquerque,NM,35.1032898,-106.6658077,350010025001,1650576693,EarthLink,49.95,10.0,1.0,Mbps,Copper,EarthLink Internet 10M,40.0,69.95,Slow (<25 Mbps),,0.7052785923753666,less white,22813.0,31123.0,Low,961.8306938226352,2.0,0.8453757225433526,CenturyLink
"917 19th St NW Albuquerque, NM 87104",albuquerque,NM,35.1026364,-106.6668363,350010025001,1650576630,EarthLink,49.95,15.0,0.75,Mbps,Copper,EarthLink Internet 15M,80.0,69.95,Slow (<25 Mbps),,0.7052785923753666,less white,22813.0,31123.0,Low,961.8306938226352,2.0,0.8453757225433526,CenturyLink
"1131 Mis Abuelitos Dr NW Albuquerque, NM 87104",albuquerque,NM,35.1054853,-106.6648463,350010025001,1650576675,EarthLink,49.95,15.0,0.75,Mbps,Copper,EarthLink Internet 15M,15.0,49.95,Slow (<25 Mbps),,0.7052785923753666,less white,22813.0,31123.0,Low,961.8306938226352,2.0,0.8453757225433526,CenturyLink
"1028 21st St NW Albuquerque, NM 87104",albuquerque,NM,35.1047239,-106.667925,350010025001,1650576638,EarthLink,49.95,10.0,1.0,Mbps,Copper,EarthLink Internet 10M,40.0,69.95,Slow (<25 Mbps),,0.7052785923753666,less white,22813.0,31123.0,Low,961.8306938226352,2.0,0.8453757225433526,CenturyLink
"216 Tohatchi Trl NW Albuquerque, NM 87104",albuquerque,NM,35.0995872,-106.6747418,350010025001,1650576715,EarthLink,49.95,10.0,1.0,Mbps,Copper,EarthLink Internet 10M,40.0,69.95,Slow (<25 Mbps),,0.7052785923753666,less white,22813.0,31123.0,Low,961.8306938226352,2.0,0.8453757225433526,CenturyLink
"1301 12th St NW Albuquerque, NM 87104",albuquerque,NM,35.1002433,-106.6589456,350010025001,1650576676,EarthLink,49.95,3.0,0.512,Mbps,Copper,EarthLink Internet 3M,3.0,49.95,Slow (<25 Mbps),,0.7052785923753666,less white,22813.0,31123.0,Low,961.8306938226352,2.0,0.8453757225433526,CenturyLink
"1429 15th St NW Albuquerque, NM 87104",albuquerque,NM,35.100879,-106.6618914,350010025001,1650576629,EarthLink,49.95,15.0,0.75,Mbps,Copper,EarthLink Internet 15M,15.0,49.95,Slow (<25 Mbps),,0.7052785923753666,less white,22813.0,31123.0,Low,961.8306938226352,2.0,0.8453757225433526,CenturyLink
"2359 Mountain Rd NW Albuquerque, NM 87104",albuquerque,NM,35.0992593,-106.673939,350010025001,1650576667,EarthLink,49.95,15.0,0.75,Mbps,Copper,EarthLink Internet 15M,100.0,79.95,Slow (<25 Mbps),,0.7052785923753666,less white,22813.0,31123.0,Low,961.8306938226352,2.0,0.8453757225433526,CenturyLink
"926 22nd St NW Albuquerque, NM 87104",albuquerque,NM,35.103253,-106.6689065,350010025001,1650576718,EarthLink,49.95,15.0,0.75,Mbps,Copper,EarthLink Internet 15M,60.0,69.95,Slow (<25 Mbps),,0.7052785923753666,less white,22813.0,31123.0,Low,961.8306938226352,2.0,0.8453757225433526,CenturyLink
"828 Southeast Cir NW Albuquerque, NM 87104",albuquerque,NM,35.1012826,-106.6714857,350010025001,1650576632,EarthLink,49.95,15.0,0.75,Mbps,Copper,EarthLink Internet 15M,100.0,79.95,Slow (<25 Mbps),,0.7052785923753666,less white,22813.0,31123.0,Low,961.8306938226352,2.0,0.8453757225433526,CenturyLink
"2355 Mountain Rd NW Albuquerque, NM 87104",albuquerque,NM,35.0995122,-106.6739105,350010025001,1650576713,EarthLink,49.95,15.0,0.75,Mbps,Copper,EarthLink Internet 15M,100.0,79.95,Slow (<25 Mbps),,0.7052785923753666,less white,22813.0,31123.0,Low,961.8306938226352,2.0,0.8453757225433526,CenturyLink
"1105 18th St NW Albuquerque, NM 87104",albuquerque,NM,35.1046691,-106.6657745,350010025001,1650576655,EarthLink,49.95,10.0,1.0,Mbps,Copper,EarthLink Internet 10M,40.0,69.95,Slow (<25 Mbps),,0.7052785923753666,less white,22813.0,31123.0,Low,961.8306938226352,2.0,0.8453757225433526,CenturyLink
"615 Main St NW Albuquerque, NM 87104",albuquerque,NM,35.0991166,-106.6715804,350010025001,1650576674,EarthLink,49.95,15.0,0.75,Mbps,Copper,EarthLink Internet 15M,100.0,79.95,Slow (<25 Mbps),,0.7052785923753666,less white,22813.0,31123.0,Low,961.8306938226352,2.0,0.8453757225433526,CenturyLink
"1010 21st St NW Albuquerque, NM 87104",albuquerque,NM,35.1039853,-106.6679773,350010025001,1650576647,EarthLink,49.95,10.0,1.0,Mbps,Copper,EarthLink Internet 10M,40.0,69.95,Slow (<25 Mbps),,0.7052785923753666,less white,22813.0,31123.0,Low,961.8306938226352,2.0,0.8453757225433526,CenturyLink
"938 23rd St NW Albuquerque, NM 87104",albuquerque,NM,35.1033537,-106.6697746,350010025001,1650576624,EarthLink,49.95,10.0,1.0,Mbps,Copper,EarthLink Internet 10M,40.0,69.95,Slow (<25 Mbps),,0.7052785923753666,less white,22813.0,31123.0,Low,961.8306938226352,2.0,0.8453757225433526,CenturyLink
"918 22nd St NW Albuquerque, NM 87104",albuquerque,NM,35.1029652,-106.6689258,350010025001,1650576669,EarthLink,49.95,15.0,0.75,Mbps,Copper,EarthLink Internet 15M,60.0,69.95,Slow (<25 Mbps),,0.7052785923753666,less white,22813.0,31123.0,Low,961.8306938226352,2.0,0.8453757225433526,CenturyLink
"858 Southeast Cir NW Albuquerque, NM 87104",albuquerque,NM,35.1015687,-106.6723039,350010025001,1650576739,EarthLink,49.95,15.0,0.75,Mbps,Copper,EarthLink Internet 15M,100.0,79.95,Slow (<25 Mbps),,0.7052785923753666,less white,22813.0,31123.0,Low,961.8306938226352,2.0,0.8453757225433526,CenturyLink
"924 Rio Grande Blvd NW Albuquerque, NM 87104",albuquerque,NM,35.1031044,-106.6703481,350010025001,1650576641,EarthLink,49.95,10.0,1.0,Mbps,Copper,EarthLink Internet 10M,40.0,69.95,Slow (<25 Mbps),,0.7052785923753666,less white,22813.0,31123.0,Low,961.8306938226352,2.0,0.8453757225433526,CenturyLink
"1111 18th St NW Albuquerque, NM 87104",albuquerque,NM,35.1048889,-106.6657762,350010025001,1650576663,EarthLink,49.95,10.0,1.0,Mbps,Copper,EarthLink Internet 10M,40.0,69.95,Slow (<25 Mbps),,0.7052785923753666,less white,22813.0,31123.0,Low,961.8306938226352,2.0,0.8453757225433526,CenturyLink
"2433 Carson Rd NW Albuquerque, NM 87104",albuquerque,NM,35.1010158,-106.6722142,350010025001,1650576625,EarthLink,49.95,15.0,0.75,Mbps,Copper,EarthLink Internet 15M,100.0,79.95,Slow (<25 Mbps),,0.7052785923753666,less white,22813.0,31123.0,Low,961.8306938226352,2.0,0.8453757225433526,CenturyLink
"212 Tohatchi Trl NW Albuquerque, NM 87104",albuquerque,NM,35.0993264,-106.6749023,350010025001,1650576712,EarthLink,49.95,10.0,1.0,Mbps,Copper,EarthLink Internet 10M,10.0,49.95,Slow (<25 Mbps),,0.7052785923753666,less white,22813.0,31123.0,Low,961.8306938226352,2.0,0.8453757225433526,CenturyLink
"1007 21st St NW Albuquerque, NM 87104",albuquerque,NM,35.1038928,-106.6684916,350010025001,1650576634,EarthLink,49.95,15.0,0.75,Mbps,Copper,EarthLink Internet 15M,60.0,69.95,Slow (<25 Mbps),,0.7052785923753666,less white,22813.0,31123.0,Low,961.8306938226352,2.0,0.8453757225433526,CenturyLink
"1009 15th St NW Albuquerque, NM 87104",albuquerque,NM,35.0969534,-106.6625154,350010025001,1650576654,EarthLink,49.95,10.0,1.0,Mbps,Copper,EarthLink Internet 10M,40.0,69.95,Slow (<25 Mbps),,0.7052785923753666,less white,22813.0,31123.0,Low,961.8306938226352,2.0,0.8453757225433526,CenturyLink
"2448 Pueblo Bonito Ct NW Albuquerque, NM 87104",albuquerque,NM,35.0999827,-106.6732557,350010025001,1650576714,EarthLink,49.95,10.0,1.0,Mbps,Copper,EarthLink Internet 10M,40.0,69.95,Slow (<25 Mbps),,0.7052785923753666,less white,22813.0,31123.0,Low,961.8306938226352,2.0,0.8453757225433526,CenturyLink
"824 Southeast Cir NW Albuquerque, NM 87104",albuquerque,NM,35.1011066,-106.6713216,350010025001,1650576718,EarthLink,49.95,15.0,0.75,Mbps,Copper,EarthLink Internet 15M,100.0,79.95,Slow (<25 Mbps),,0.7052785923753666,less white,22813.0,31123.0,Low,961.8306938226352,2.0,0.8453757225433526,CenturyLink
"1111 Mis Abuelitos Dr NW Albuquerque, NM 87104",albuquerque,NM,35.1049155,-106.6647724,350010025001,1650576740,EarthLink,49.95,15.0,0.75,Mbps,Copper,EarthLink Internet 15M,15.0,49.95,Slow (<25 Mbps),,0.7052785923753666,less white,22813.0,31123.0,Low,961.8306938226352,2.0,0.8453757225433526,CenturyLink
"913 19th St NW Albuquerque, NM 87104",albuquerque,NM,35.1027486,-106.6668285,350010025001,1650576644,EarthLink,49.95,15.0,0.75,Mbps,Copper,EarthLink Internet 15M,80.0,69.95,Slow (<25 Mbps),,0.7052785923753666,less white,22813.0,31123.0,Low,961.8306938226352,2.0,0.8453757225433526,CenturyLink
"912 19th St NW Albuquerque, NM 87104",albuquerque,NM,35.1030335,-106.6662333,350010025001,1650576712,EarthLink,49.95,15.0,0.75,Mbps,Copper,EarthLink Internet 15M,60.0,69.95,Slow (<25 Mbps),,0.7052785923753666,less white,22813.0,31123.0,Low,961.8306938226352,2.0,0.8453757225433526,CenturyLink
"844 Southeast Cir NW Albuquerque, NM 87104",albuquerque,NM,35.1013783,-106.6717377,350010025001,1650576631,EarthLink,49.95,15.0,0.75,Mbps,Copper,EarthLink Internet 15M,100.0,79.95,Slow (<25 Mbps),,0.7052785923753666,less white,22813.0,31123.0,Low,961.8306938226352,2.0,0.8453757225433526,CenturyLink
"854 Southeast Cir NW Albuquerque, NM 87104",albuquerque,NM,35.1015459,-106.6721231,350010025001,1650576658,EarthLink,49.95,15.0,0.75,Mbps,Copper,EarthLink Internet 15M,100.0,79.95,Slow (<25 Mbps),,0.7052785923753666,less white,22813.0,31123.0,Low,961.8306938226352,2.0,0.8453757225433526,CenturyLink
"600 Oakwood Pl NE Albuquerque, NM 87123",albuquerque,NM,35.0744277,-106.4878212,350010007113,1652428854,EarthLink,49.95,10.0,1.0,Mbps,Copper,EarthLink Internet 10M,40.0,69.95,Slow (<25 Mbps),,0.6178781925343811,less white,70938.0,-17002.0,Middle-Upper,1249.65014706099,2.0,0.8305555555555556,CenturyLink
"14509 Hilldale Rd NE Albuquerque, NM 87123",albuquerque,NM,35.0744848,-106.4874121,350010007113,1652695265,EarthLink,49.95,15.0,0.75,Mbps,Copper,EarthLink Internet 15M,60.0,69.95,Slow (<25 Mbps),,0.6178781925343811,less white,70938.0,-17002.0,Middle-Upper,1249.65014706099,2.0,0.8305555555555556,CenturyLink
"14116 Encantado Rd NE Albuquerque, NM 87123",albuquerque,NM,35.0747925,-106.4906881,350010007113,1652987126,EarthLink,49.95,15.0,0.75,Mbps,Copper,EarthLink Internet 15M,80.0,69.95,Slow (<25 Mbps),,0.6178781925343811,less white,70938.0,-17002.0,Middle-Upper,1249.65014706099,2.0,0.8305555555555556,CenturyLink
"207 Wells Dr NE Albuquerque, NM 87123",albuquerque,NM,35.0697251,-106.4906201,350010007113,1652450758,EarthLink,49.95,15.0,0.75,Mbps,Copper,EarthLink Internet 15M,80.0,69.95,Slow (<25 Mbps),,0.6178781925343811,less white,70938.0,-17002.0,Middle-Upper,1249.65014706099,2.0,0.8305555555555556,CenturyLink
"501 Monte Alto Pl NE Albuquerque, NM 87123",albuquerque,NM,35.074464,-106.4913465,350010007113,1652990492,EarthLink,49.95,15.0,0.75,Mbps,Copper,EarthLink Internet 15M,100.0,79.95,Slow (<25 Mbps),,0.6178781925343811,less white,70938.0,-17002.0,Middle-Upper,1249.65014706099,2.0,0.8305555555555556,CenturyLink
"601 Manor Ct NE Albuquerque, NM 87123",albuquerque,NM,35.0744344,-106.4863465,350010007113,1652644899,EarthLink,49.95,15.0,0.75,Mbps,Copper,EarthLink Internet 15M,60.0,69.95,Slow (<25 Mbps),,0.6178781925343811,less white,70938.0,-17002.0,Middle-Upper,1249.65014706099,2.0,0.8305555555555556,CenturyLink
"14413 Oakwood Pl NE Albuquerque, NM 87123",albuquerque,NM,35.0701585,-106.486121,350010007113,1653415278,EarthLink,49.95,10.0,1.0,Mbps,Copper,EarthLink Internet 10M,40.0,69.95,Slow (<25 Mbps),,0.6178781925343811,less white,70938.0,-17002.0,Middle-Upper,1249.65014706099,2.0,0.8305555555555556,CenturyLink
"14317 Oakwood Pl NE Albuquerque, NM 87123",albuquerque,NM,35.0710104,-106.4877227,350010007113,1652231170,EarthLink,49.95,10.0,1.0,Mbps,Copper,EarthLink Internet 10M,40.0,69.95,Slow (<25 Mbps),,0.6178781925343811,less white,70938.0,-17002.0,Middle-Upper,1249.65014706099,2.0,0.8305555555555556,CenturyLink
"435 Monte Alto Pl NE Albuquerque, NM 87123",albuquerque,NM,35.0744479,-106.493526,350010007113,1652097690,EarthLink,49.95,15.0,0.75,Mbps,Copper,EarthLink Internet 15M,80.0,69.95,Slow (<25 Mbps),,0.6178781925343811,less white,70938.0,-17002.0,Middle-Upper,1249.65014706099,2.0,0.8305555555555556,CenturyLink
"189 Vista Point Ct NE Albuquerque, NM 87123",albuquerque,NM,35.0699609,-106.4954195,350010007113,1653365002,EarthLink,49.95,15.0,0.75,Mbps,Copper,EarthLink Internet 15M,80.0,69.95,Slow (<25 Mbps),,0.6178781925343811,less white,70938.0,-17002.0,Middle-Upper,1249.65014706099,2.0,0.8305555555555556,CenturyLink
"14306 Arcadia Rd NE Albuquerque, NM 87123",albuquerque,NM,35.0682864,-106.4876272,350010007113,1652806904,EarthLink,49.95,15.0,0.75,Mbps,Copper,EarthLink Internet 15M,15.0,49.95,Slow (<25 Mbps),,0.6178781925343811,less white,70938.0,-17002.0,Middle-Upper,1249.65014706099,2.0,0.8305555555555556,CenturyLink
"503 Monte Alto Dr NE Albuquerque, NM 87123",albuquerque,NM,35.0739389,-106.4951384,350010007113,1651878163,EarthLink,49.95,15.0,0.75,Mbps,Copper,EarthLink Internet 15M,100.0,79.95,Slow (<25 Mbps),,0.6178781925343811,less white,70938.0,-17002.0,Middle-Upper,1249.65014706099,2.0,0.8305555555555556,CenturyLink
"14325 Oakwood Pl NE Albuquerque, NM 87123",albuquerque,NM,35.0708043,-106.4874054,350010007113,1652318165,EarthLink,49.95,10.0,1.0,Mbps,Copper,EarthLink Internet 10M,40.0,69.95,Slow (<25 Mbps),,0.6178781925343811,less white,70938.0,-17002.0,Middle-Upper,1249.65014706099,2.0,0.8305555555555556,CenturyLink
"624 Turner Dr NE Albuquerque, NM 87123",albuquerque,NM,35.0751726,-106.4895613,350010007113,1652144648,EarthLink,49.95,15.0,0.75,Mbps,Copper,EarthLink Internet 15M,80.0,69.95,Slow (<25 Mbps),,0.6178781925343811,less white,70938.0,-17002.0,Middle-Upper,1249.65014706099,2.0,0.8305555555555556,CenturyLink
"413 Monte Alto Pl NE Albuquerque, NM 87123",albuquerque,NM,35.0729913,-106.4948749,350010007113,1652061787,EarthLink,49.95,15.0,0.75,Mbps,Copper,EarthLink Internet 15M,100.0,79.95,Slow (<25 Mbps),,0.6178781925343811,less white,70938.0,-17002.0,Middle-Upper,1249.65014706099,2.0,0.8305555555555556,CenturyLink
"14409 Windsor Pl NE Albuquerque, NM 87123",albuquerque,NM,35.0684211,-106.4859503,350010007113,1652738515,EarthLink,49.95,10.0,1.0,Mbps,Copper,EarthLink Internet 10M,10.0,49.95,Slow (<25 Mbps),,0.6178781925343811,less white,70938.0,-17002.0,Middle-Upper,1249.65014706099,2.0,0.8305555555555556,CenturyLink
"14330 Skyline Rd NE Albuquerque, NM 87123",albuquerque,NM,35.0713288,-106.4866543,350010007113,1652069027,EarthLink,49.95,15.0,0.75,Mbps,Copper,EarthLink Internet 15M,60.0,69.95,Slow (<25 Mbps),,0.6178781925343811,less white,70938.0,-17002.0,Middle-Upper,1249.65014706099,2.0,0.8305555555555556,CenturyLink
"411 Cenaroca Ct NE Albuquerque, NM 87123",albuquerque,NM,35.0727673,-106.4925661,350010007113,1652364088,EarthLink,49.95,15.0,0.75,Mbps,Copper,EarthLink Internet 15M,100.0,79.95,Slow (<25 Mbps),,0.6178781925343811,less white,70938.0,-17002.0,Middle-Upper,1249.65014706099,2.0,0.8305555555555556,CenturyLink
"13912 Encantado Rd NE Albuquerque, NM 87123",albuquerque,NM,35.0747702,-106.4935278,350010007113,1651964529,EarthLink,49.95,15.0,0.75,Mbps,Copper,EarthLink Internet 15M,80.0,69.95,Slow (<25 Mbps),,0.6178781925343811,less white,70938.0,-17002.0,Middle-Upper,1249.65014706099,2.0,0.8305555555555556,CenturyLink
"241 Monte Alto Pl NE Albuquerque, NM 87123",albuquerque,NM,35.0715584,-106.4948823,350010007113,1653126363,EarthLink,49.95,15.0,0.75,Mbps,Copper,EarthLink Internet 15M,80.0,69.95,Slow (<25 Mbps),,0.6178781925343811,less white,70938.0,-17002.0,Middle-Upper,1249.65014706099,2.0,0.8305555555555556,CenturyLink
"14319 Skyline Rd NE Albuquerque, NM 87123",albuquerque,NM,35.0717997,-106.4873743,350010007113,1652130183,EarthLink,49.95,15.0,0.75,Mbps,Copper,EarthLink Internet 15M,60.0,69.95,Slow (<25 Mbps),,0.6178781925343811,less white,70938.0,-17002.0,Middle-Upper,1249.65014706099,2.0,0.8305555555555556,CenturyLink
"193 Vista Point Ct NE Albuquerque, NM 87123",albuquerque,NM,35.0700969,-106.4954169,350010007113,1651698136,EarthLink,49.95,15.0,0.75,Mbps,Copper,EarthLink Internet 15M,80.0,69.95,Slow (<25 Mbps),,0.6178781925343811,less white,70938.0,-17002.0,Middle-Upper,1249.65014706099,2.0,0.8305555555555556,CenturyLink
"617 Oakwood Pl NE Albuquerque, NM 87123",albuquerque,NM,35.0748784,-106.4884922,350010007113,1653298542,EarthLink,49.95,10.0,1.0,Mbps,Copper,EarthLink Internet 10M,40.0,69.95,Slow (<25 Mbps),,0.6178781925343811,less white,70938.0,-17002.0,Middle-Upper,1249.65014706099,2.0,0.8305555555555556,CenturyLink
"14108 Piedras Rd NE Albuquerque, NM 87123",albuquerque,NM,35.0731304,-106.4906288,350010007113,1652756489,EarthLink,49.95,15.0,0.75,Mbps,Copper,EarthLink Internet 15M,100.0,79.95,Slow (<25 Mbps),,0.6178781925343811,less white,70938.0,-17002.0,Middle-Upper,1249.65014706099,2.0,0.8305555555555556,CenturyLink
"437 Monte Largo Dr NE Albuquerque, NM 87123",albuquerque,NM,35.0737228,-106.4931816,350010007113,1652216458,EarthLink,49.95,15.0,0.75,Mbps,Copper,EarthLink Internet 15M,100.0,79.95,Slow (<25 Mbps),,0.6178781925343811,less white,70938.0,-17002.0,Middle-Upper,1249.65014706099,2.0,0.8305555555555556,CenturyLink
"14124 Skyline Rd NE Albuquerque, NM 87123",albuquerque,NM,35.0712082,-106.4897404,350010007113,1651716027,EarthLink,49.95,10.0,1.0,Mbps,Copper,EarthLink Internet 10M,40.0,69.95,Slow (<25 Mbps),,0.6178781925343811,less white,70938.0,-17002.0,Middle-Upper,1249.65014706099,2.0,0.8305555555555556,CenturyLink
"205 Lawrence Dr NE Albuquerque, NM 87123",albuquerque,NM,35.0708612,-106.4928292,350010007113,1651764725,EarthLink,49.95,15.0,0.75,Mbps,Copper,EarthLink Internet 15M,60.0,69.95,Slow (<25 Mbps),,0.6178781925343811,less white,70938.0,-17002.0,Middle-Upper,1249.65014706099,2.0,0.8305555555555556,CenturyLink
"6250 Paseo Del Norte NE Albuquerque, NM 87113",albuquerque,NM,35.1734713,-106.5782046,350010037235,1650573935,EarthLink,49.95,10.0,1.0,Mbps,Copper,EarthLink Internet 10M,10.0,49.95,Slow (<25 Mbps),,0.3212669683257919,most white,30057.0,23879.0,Low,590.1112310717149,2.0,0.6454767726161369,CenturyLink
"7601 San Pedro Dr NE Albuquerque, NM 87109",albuquerque,NM,35.1674492,-106.5779328,350010037235,1650573933,EarthLink,49.95,10.0,1.0,Mbps,Copper,EarthLink Internet 10M,10.0,49.95,Slow (<25 Mbps),,0.3212669683257919,most white,30057.0,23879.0,Low,590.1112310717149,2.0,0.6454767726161369,CenturyLink
"5251 San Antonio Dr NE Albuquerque, NM 87109",albuquerque,NM,35.1605577,-106.5840107,350010037235,1650573942,EarthLink,49.95,3.0,0.512,Mbps,Copper,EarthLink Internet 3M,3.0,49.95,Slow (<25 Mbps),,0.3212669683257919,most white,30057.0,23879.0,Low,590.1112310717149,2.0,0.6454767726161369,CenturyLink
"5201 San Antonio Dr NE Albuquerque, NM 87109",albuquerque,NM,35.1605659,-106.5856015,350010037235,1650573932,EarthLink,49.95,10.0,1.0,Mbps,Copper,EarthLink Internet 10M,10.0,49.95,Slow (<25 Mbps),,0.3212669683257919,most white,30057.0,23879.0,Low,590.1112310717149,2.0,0.6454767726161369,CenturyLink
"6001 San Francisco Rd NE Albuquerque, NM 87109",albuquerque,NM,35.1674619,-106.5811911,350010037235,1650573913,EarthLink,49.95,3.0,0.512,Mbps,Copper,EarthLink Internet 3M,3.0,49.95,Slow (<25 Mbps),,0.3212669683257919,most white,30057.0,23879.0,Low,590.1112310717149,2.0,0.6454767726161369,CenturyLink
"7901 San Pedro Dr NE Albuquerque, NM 87109",albuquerque,NM,35.1723049,-106.5782725,350010037235,1650573946,EarthLink,49.95,10.0,1.0,Mbps,Copper,EarthLink Internet 10M,10.0,49.95,Slow (<25 Mbps),,0.3212669683257919,most white,30057.0,23879.0,Low,590.1112310717149,2.0,0.6454767726161369,CenturyLink
"7605 San Pedro Dr NE Albuquerque, NM 87109",albuquerque,NM,35.1680947,-106.5779469,350010037235,1650573933,EarthLink,49.95,10.0,1.0,Mbps,Copper,EarthLink Internet 10M,10.0,49.95,Slow (<25 Mbps),,0.3212669683257919,most white,30057.0,23879.0,Low,590.1112310717149,2.0,0.6454767726161369,CenturyLink
"6240 Paseo Del Norte NE Albuquerque, NM 87113",albuquerque,NM,35.1735892,-106.5788968,350010037235,1650573931,EarthLink,49.95,10.0,1.0,Mbps,Copper,EarthLink Internet 10M,10.0,49.95,Slow (<25 Mbps),,0.3212669683257919,most white,30057.0,23879.0,Low,590.1112310717149,2.0,0.6454767726161369,CenturyLink
