address_full,major_city,state,lat,lon,block_group,collection_datetime,provider,price,speed_down,speed_up,speed_unit,technology,package,fastest_speed_down,fastest_speed_price,speed_down_bins,redlining_grade,race_perc_non_white,race_quantile,median_household_income,income_dollars_below_median,income_level,ppl_per_sq_mile,n_providers,internet_perc_broadband,contract_provider
"5329 W Lake Mead Blvd Las Vegas, NV 89108",las vegas,NV,36.1952989,-115.2132983,320030034233,1652533232,EarthLink,49.95,3.0,0.512,Mbps,Copper,EarthLink Internet 3M,3.0,49.95,Slow (<25 Mbps),,0.6608219178082192,least white,44487.0,13890.0,Low,2216.6458565119588,2.0,0.8025889967637541,CenturyLink
"5136 Lamarjon Ct Las Vegas, NV 89108",las vegas,NV,36.1926464,-115.2121147,320030034233,1652986992,EarthLink,49.95,15.0,0.75,Mbps,Copper,EarthLink Internet 15M,15.0,49.95,Slow (<25 Mbps),,0.6608219178082192,least white,44487.0,13890.0,Low,2216.6458565119588,2.0,0.8025889967637541,CenturyLink
"1775 N Decatur Blvd Las Vegas, NV 89108",las vegas,NV,36.1915132,-115.2067766,320030034233,1653195981,EarthLink,49.95,15.0,0.75,Mbps,Copper,EarthLink Internet 15M,80.0,69.95,Slow (<25 Mbps),,0.6608219178082192,least white,44487.0,13890.0,Low,2216.6458565119588,2.0,0.8025889967637541,CenturyLink
"1701 Tripp Ct Las Vegas, NV 89108",las vegas,NV,36.1893012,-115.2117525,320030034233,1653073298,EarthLink,49.95,15.0,0.75,Mbps,Copper,EarthLink Internet 15M,80.0,69.95,Slow (<25 Mbps),,0.6608219178082192,least white,44487.0,13890.0,Low,2216.6458565119588,2.0,0.8025889967637541,CenturyLink
"5301 W Lake Mead Blvd Las Vegas, NV 89108",las vegas,NV,36.1952935,-115.2129554,320030034233,1651816913,EarthLink,49.95,3.0,0.512,Mbps,Copper,EarthLink Internet 3M,3.0,49.95,Slow (<25 Mbps),,0.6608219178082192,least white,44487.0,13890.0,Low,2216.6458565119588,2.0,0.8025889967637541,CenturyLink
"1705 Tripp Ct Las Vegas, NV 89108",las vegas,NV,36.1894793,-115.2117474,320030034233,1653141743,EarthLink,49.95,15.0,0.75,Mbps,Copper,EarthLink Internet 15M,80.0,69.95,Slow (<25 Mbps),,0.6608219178082192,least white,44487.0,13890.0,Low,2216.6458565119588,2.0,0.8025889967637541,CenturyLink
"5281 Hayes Ave Las Vegas, NV 89108",las vegas,NV,36.191202,-115.212398,320030034233,1652310086,EarthLink,49.95,15.0,0.75,Mbps,Copper,EarthLink Internet 15M,40.0,69.95,Slow (<25 Mbps),,0.6608219178082192,least white,44487.0,13890.0,Low,2216.6458565119588,2.0,0.8025889967637541,CenturyLink
"3025 W Sahara Ave Las Vegas, NV 89102",las vegas,NV,36.1439762,-115.1834893,320030022012,1653148874,EarthLink,49.95,15.0,0.75,Mbps,Copper,EarthLink Internet 15M,40.0,69.95,Slow (<25 Mbps),,0.8132701421800947,least white,55595.0,2782.0,Middle-Lower,3320.3352437063127,2.0,0.9415807560137456,CenturyLink
"2812 Northam St Las Vegas, NV 89102",las vegas,NV,36.1385524,-115.1839503,320030022012,1651593871,EarthLink,49.95,15.0,0.75,Mbps,Copper,EarthLink Internet 15M,15.0,49.95,Slow (<25 Mbps),,0.8132701421800947,least white,55595.0,2782.0,Middle-Lower,3320.3352437063127,2.0,0.9415807560137456,CenturyLink
"2716 Yardley St Las Vegas, NV 89102",las vegas,NV,36.1402227,-115.1857621,320030022012,1652256096,EarthLink,49.95,15.0,0.75,Mbps,Copper,EarthLink Internet 15M,40.0,69.95,Slow (<25 Mbps),,0.8132701421800947,least white,55595.0,2782.0,Middle-Lower,3320.3352437063127,2.0,0.9415807560137456,CenturyLink
"3209 Wilmington Way Las Vegas, NV 89102",las vegas,NV,36.1397193,-115.1853439,320030022012,1652101297,EarthLink,49.95,15.0,0.75,Mbps,Copper,EarthLink Internet 15M,40.0,69.95,Slow (<25 Mbps),,0.8132701421800947,least white,55595.0,2782.0,Middle-Lower,3320.3352437063127,2.0,0.9415807560137456,CenturyLink
"8712 Monarchy Ct Las Vegas, NV 89129",las vegas,NV,36.2362913,-115.2878531,320030032422,1652212930,EarthLink,49.95,10.0,1.0,Mbps,Fiber Based,EarthLink Internet 10M,1000.0,99.95,Slow (<25 Mbps),,0.2476076555023923,most white,171375.0,-112998.0,Upper Income,627.2165465126835,2.0,0.8858131487889274,CenturyLink
"4000 Mountain Trek St Las Vegas, NV 89129",las vegas,NV,36.2342944,-115.2920642,320030032422,1652659397,EarthLink,49.95,10.0,1.0,Mbps,Fiber Based,EarthLink Internet 10M,1000.0,99.95,Slow (<25 Mbps),,0.2476076555023923,most white,171375.0,-112998.0,Upper Income,627.2165465126835,2.0,0.8858131487889274,CenturyLink
"4201 Scott Peak Ct Las Vegas, NV 89129",las vegas,NV,36.2375864,-115.2926235,320030032422,1652475640,EarthLink,49.95,10.0,1.0,Mbps,Fiber Based,EarthLink Internet 10M,1000.0,99.95,Slow (<25 Mbps),,0.2476076555023923,most white,171375.0,-112998.0,Upper Income,627.2165465126835,2.0,0.8858131487889274,CenturyLink
"4116 Rubicon Peak Ct Las Vegas, NV 89129",las vegas,NV,36.2370871,-115.2931947,320030032422,1652263479,EarthLink,49.95,10.0,1.0,Mbps,Fiber Based,EarthLink Internet 10M,1000.0,99.95,Slow (<25 Mbps),,0.2476076555023923,most white,171375.0,-112998.0,Upper Income,627.2165465126835,2.0,0.8858131487889274,CenturyLink
"4101 Highland Castle Ct Las Vegas, NV 89129",las vegas,NV,36.2355145,-115.2904978,320030032422,1652310093,EarthLink,49.95,10.0,1.0,Mbps,Fiber Based,EarthLink Internet 10M,1000.0,99.95,Slow (<25 Mbps),,0.2476076555023923,most white,171375.0,-112998.0,Upper Income,627.2165465126835,2.0,0.8858131487889274,CenturyLink
"4021 Flaming Peak Ct Las Vegas, NV 89129",las vegas,NV,36.2357732,-115.2960871,320030032422,1652926557,EarthLink,49.95,10.0,1.0,Mbps,Fiber Based,EarthLink Internet 10M,1000.0,99.95,Slow (<25 Mbps),,0.2476076555023923,most white,171375.0,-112998.0,Upper Income,627.2165465126835,2.0,0.8858131487889274,CenturyLink
"8712 Kingship Ct Las Vegas, NV 89129",las vegas,NV,36.2353843,-115.287859,320030032422,1652792545,EarthLink,49.95,10.0,1.0,Mbps,Fiber Based,EarthLink Internet 10M,1000.0,99.95,Slow (<25 Mbps),,0.2476076555023923,most white,171375.0,-112998.0,Upper Income,627.2165465126835,2.0,0.8858131487889274,CenturyLink
"4108 Freel Peak Ct Las Vegas, NV 89129",las vegas,NV,36.2364654,-115.2943238,320030032422,1652364077,EarthLink,49.95,10.0,1.0,Mbps,Fiber Based,EarthLink Internet 10M,1000.0,99.95,Slow (<25 Mbps),,0.2476076555023923,most white,171375.0,-112998.0,Upper Income,627.2165465126835,2.0,0.8858131487889274,CenturyLink
"4108 Everest St Las Vegas, NV 89129",las vegas,NV,36.2366246,-115.2966556,320030032422,1652421943,EarthLink,49.95,10.0,1.0,Mbps,Fiber Based,EarthLink Internet 10M,1000.0,99.95,Slow (<25 Mbps),,0.2476076555023923,most white,171375.0,-112998.0,Upper Income,627.2165465126835,2.0,0.8858131487889274,CenturyLink
"4005 Everest St Las Vegas, NV 89129",las vegas,NV,36.2343529,-115.2972361,320030032422,1651737823,EarthLink,49.95,10.0,1.0,Mbps,Fiber Based,EarthLink Internet 10M,1000.0,99.95,Slow (<25 Mbps),,0.2476076555023923,most white,171375.0,-112998.0,Upper Income,627.2165465126835,2.0,0.8858131487889274,CenturyLink
"9112 Frosty Morning Ave Las Vegas, NV 89129",las vegas,NV,36.236211,-115.2962518,320030032422,1653130911,EarthLink,49.95,10.0,1.0,Mbps,Fiber Based,EarthLink Internet 10M,1000.0,99.95,Slow (<25 Mbps),,0.2476076555023923,most white,171375.0,-112998.0,Upper Income,627.2165465126835,2.0,0.8858131487889274,CenturyLink
"4208 Scott Peak Ct Las Vegas, NV 89129",las vegas,NV,36.2381115,-115.2922957,320030032422,1652893306,EarthLink,49.95,10.0,1.0,Mbps,Fiber Based,EarthLink Internet 10M,1000.0,99.95,Slow (<25 Mbps),,0.2476076555023923,most white,171375.0,-112998.0,Upper Income,627.2165465126835,2.0,0.8858131487889274,CenturyLink
"8908 Mount Hood Ct Las Vegas, NV 89129",las vegas,NV,36.2370496,-115.2916426,320030032422,1653408222,EarthLink,49.95,10.0,1.0,Mbps,Fiber Based,EarthLink Internet 10M,1000.0,99.95,Slow (<25 Mbps),,0.2476076555023923,most white,171375.0,-112998.0,Upper Income,627.2165465126835,2.0,0.8858131487889274,CenturyLink
"4117 Freel Peak Ct Las Vegas, NV 89129",las vegas,NV,36.2370787,-115.2949894,320030032422,1651932117,EarthLink,49.95,10.0,1.0,Mbps,Fiber Based,EarthLink Internet 10M,1000.0,99.95,Slow (<25 Mbps),,0.2476076555023923,most white,171375.0,-112998.0,Upper Income,627.2165465126835,2.0,0.8858131487889274,CenturyLink
"8708 Monarchy Ct Las Vegas, NV 89129",las vegas,NV,36.2362504,-115.2873427,320030032422,1653023019,EarthLink,49.95,10.0,1.0,Mbps,Fiber Based,EarthLink Internet 10M,1000.0,99.95,Slow (<25 Mbps),,0.2476076555023923,most white,171375.0,-112998.0,Upper Income,627.2165465126835,2.0,0.8858131487889274,CenturyLink
"512 Bowman Ave Las Vegas, NV 89106",las vegas,NV,36.1932387,-115.1491702,320030003011,1651806116,EarthLink,49.95,10.0,1.0,Mbps,Fiber Based,EarthLink Internet 10M,1000.0,99.95,Slow (<25 Mbps),,0.9760359460808788,least white,38284.0,20093.0,Low,3115.415005008306,2.0,0.7033898305084746,CenturyLink
"613 Holland Ave Las Vegas, NV 89106",las vegas,NV,36.194187,-115.1499011,320030003011,1652403976,EarthLink,49.95,10.0,1.0,Mbps,Fiber Based,EarthLink Internet 10M,1000.0,99.95,Slow (<25 Mbps),,0.9760359460808788,least white,38284.0,20093.0,Low,3115.415005008306,2.0,0.7033898305084746,CenturyLink
"1945 Susan St Las Vegas, NV 89106",las vegas,NV,36.1943144,-115.1467789,320030003011,1652360499,EarthLink,49.95,10.0,1.0,Mbps,Fiber Based,EarthLink Internet 10M,1000.0,99.95,Slow (<25 Mbps),,0.9760359460808788,least white,38284.0,20093.0,Low,3115.415005008306,2.0,0.7033898305084746,CenturyLink
"1642 E St Las Vegas, NV 89106",las vegas,NV,36.1904351,-115.1484047,320030003011,1652587271,EarthLink,49.95,10.0,1.0,Mbps,Fiber Based,EarthLink Internet 10M,1000.0,99.95,Slow (<25 Mbps),,0.9760359460808788,least white,38284.0,20093.0,Low,3115.415005008306,2.0,0.7033898305084746,CenturyLink
"417 Freeman Ave Las Vegas, NV 89106",las vegas,NV,36.1899635,-115.1483657,320030003011,1652155412,EarthLink,49.95,10.0,1.0,Mbps,Fiber Based,EarthLink Internet 10M,1000.0,99.95,Slow (<25 Mbps),,0.9760359460808788,least white,38284.0,20093.0,Low,3115.415005008306,2.0,0.7033898305084746,CenturyLink
"1952 Walker St Las Vegas, NV 89106",las vegas,NV,36.1946301,-115.1506592,320030003011,1651827987,EarthLink,49.95,10.0,1.0,Mbps,Fiber Based,EarthLink Internet 10M,1000.0,99.95,Slow (<25 Mbps),,0.9760359460808788,least white,38284.0,20093.0,Low,3115.415005008306,2.0,0.7033898305084746,CenturyLink
"509 Freeman Ave Las Vegas, NV 89106",las vegas,NV,36.1899342,-115.1491923,320030003011,1651701648,EarthLink,49.95,10.0,1.0,Mbps,Fiber Based,EarthLink Internet 10M,1000.0,99.95,Slow (<25 Mbps),,0.9760359460808788,least white,38284.0,20093.0,Low,3115.415005008306,2.0,0.7033898305084746,CenturyLink
"1900 Holmes St Las Vegas, NV 89106",las vegas,NV,36.1930477,-115.1480296,320030003011,1652184110,EarthLink,49.95,10.0,1.0,Mbps,Fiber Based,EarthLink Internet 10M,1000.0,99.95,Slow (<25 Mbps),,0.9760359460808788,least white,38284.0,20093.0,Low,3115.415005008306,2.0,0.7033898305084746,CenturyLink
"501 Frederick Ave Las Vegas, NV 89106",las vegas,NV,36.1921798,-115.148497,320030003011,1652048349,EarthLink,49.95,10.0,1.0,Mbps,Fiber Based,EarthLink Internet 10M,1000.0,99.95,Slow (<25 Mbps),,0.9760359460808788,least white,38284.0,20093.0,Low,3115.415005008306,2.0,0.7033898305084746,CenturyLink
"212 Perkins Cir Las Vegas, NV 89106",las vegas,NV,36.1947055,-115.1447733,320030003011,1652432686,EarthLink,49.95,10.0,1.0,Mbps,Fiber Based,EarthLink Internet 10M,1000.0,99.95,Slow (<25 Mbps),,0.9760359460808788,least white,38284.0,20093.0,Low,3115.415005008306,2.0,0.7033898305084746,CenturyLink
"1944 Leona St Las Vegas, NV 89106",las vegas,NV,36.1942332,-115.1439987,320030003011,1652943615,EarthLink,49.95,10.0,1.0,Mbps,Fiber Based,EarthLink Internet 10M,1000.0,99.95,Slow (<25 Mbps),,0.9760359460808788,least white,38284.0,20093.0,Low,3115.415005008306,2.0,0.7033898305084746,CenturyLink
"401 Frederick Ave Las Vegas, NV 89106",las vegas,NV,36.1921822,-115.1476444,320030003011,1651788069,EarthLink,49.95,10.0,1.0,Mbps,Fiber Based,EarthLink Internet 10M,1000.0,99.95,Slow (<25 Mbps),,0.9760359460808788,least white,38284.0,20093.0,Low,3115.415005008306,2.0,0.7033898305084746,CenturyLink
"1666 G St Las Vegas, NV 89106",las vegas,NV,36.1911194,-115.1512901,320030003011,1651586514,EarthLink,49.95,10.0,1.0,Mbps,Fiber Based,EarthLink Internet 10M,1000.0,99.95,Slow (<25 Mbps),,0.9760359460808788,least white,38284.0,20093.0,Low,3115.415005008306,2.0,0.7033898305084746,CenturyLink
"217 Paul Ave Las Vegas, NV 89106",las vegas,NV,36.1906517,-115.1458483,320030003011,1652421994,EarthLink,49.95,10.0,1.0,Mbps,Fiber Based,EarthLink Internet 10M,1000.0,99.95,Slow (<25 Mbps),,0.9760359460808788,least white,38284.0,20093.0,Low,3115.415005008306,2.0,0.7033898305084746,CenturyLink
"1660 George Pl Las Vegas, NV 89106",las vegas,NV,36.1913119,-115.1466618,320030003011,1651626377,EarthLink,49.95,10.0,1.0,Mbps,Fiber Based,EarthLink Internet 10M,1000.0,99.95,Slow (<25 Mbps),,0.9760359460808788,least white,38284.0,20093.0,Low,3115.415005008306,2.0,0.7033898305084746,CenturyLink
"516 Wyatt Ave Las Vegas, NV 89106",las vegas,NV,36.1911592,-115.1496609,320030003011,1651712464,EarthLink,49.95,10.0,1.0,Mbps,Fiber Based,EarthLink Internet 10M,1000.0,99.95,Slow (<25 Mbps),,0.9760359460808788,least white,38284.0,20093.0,Low,3115.415005008306,2.0,0.7033898305084746,CenturyLink
"201 George Pl Las Vegas, NV 89106",las vegas,NV,36.1914387,-115.144819,320030003011,1652090534,EarthLink,49.95,10.0,1.0,Mbps,Fiber Based,EarthLink Internet 10M,1000.0,99.95,Slow (<25 Mbps),,0.9760359460808788,least white,38284.0,20093.0,Low,3115.415005008306,2.0,0.7033898305084746,CenturyLink
"525 Leonard Ave Las Vegas, NV 89106",las vegas,NV,36.1891392,-115.149954,320030003011,1652068940,EarthLink,49.95,10.0,1.0,Mbps,Fiber Based,EarthLink Internet 10M,1000.0,99.95,Slow (<25 Mbps),,0.9760359460808788,least white,38284.0,20093.0,Low,3115.415005008306,2.0,0.7033898305084746,CenturyLink
"1601 F St Las Vegas, NV 89106",las vegas,NV,36.1891588,-115.1493363,320030003011,1652153468,EarthLink,49.95,10.0,1.0,Mbps,Fiber Based,EarthLink Internet 10M,1000.0,99.95,Slow (<25 Mbps),,0.9760359460808788,least white,38284.0,20093.0,Low,3115.415005008306,2.0,0.7033898305084746,CenturyLink
"304 Alexander Ave Las Vegas, NV 89106",las vegas,NV,36.1939433,-115.1455795,320030003011,1652713278,EarthLink,49.95,10.0,1.0,Mbps,Fiber Based,EarthLink Internet 10M,1000.0,99.95,Slow (<25 Mbps),,0.9760359460808788,least white,38284.0,20093.0,Low,3115.415005008306,2.0,0.7033898305084746,CenturyLink
"516 Byrnes Ave Las Vegas, NV 89106",las vegas,NV,36.1919103,-115.1497247,320030003011,1651817097,EarthLink,49.95,10.0,1.0,Mbps,Fiber Based,EarthLink Internet 10M,1000.0,99.95,Slow (<25 Mbps),,0.9760359460808788,least white,38284.0,20093.0,Low,3115.415005008306,2.0,0.7033898305084746,CenturyLink
"408 Kasper Ave Las Vegas, NV 89106",las vegas,NV,36.1954005,-115.1480651,320030003011,1652346072,EarthLink,49.95,10.0,1.0,Mbps,Fiber Based,EarthLink Internet 10M,1000.0,99.95,Slow (<25 Mbps),,0.9760359460808788,least white,38284.0,20093.0,Low,3115.415005008306,2.0,0.7033898305084746,CenturyLink
"1647 E St Las Vegas, NV 89106",las vegas,NV,36.1905709,-115.1479432,320030003011,1652248895,EarthLink,49.95,10.0,1.0,Mbps,Fiber Based,EarthLink Internet 10M,1000.0,99.95,Slow (<25 Mbps),,0.9760359460808788,least white,38284.0,20093.0,Low,3115.415005008306,2.0,0.7033898305084746,CenturyLink
"1662 G St Las Vegas, NV 89106",las vegas,NV,36.1909545,-115.1512814,320030003011,1651561549,EarthLink,49.95,10.0,1.0,Mbps,Fiber Based,EarthLink Internet 10M,1000.0,99.95,Slow (<25 Mbps),,0.9760359460808788,least white,38284.0,20093.0,Low,3115.415005008306,2.0,0.7033898305084746,CenturyLink
"212 Alexander Ave Las Vegas, NV 89106",las vegas,NV,36.1939458,-115.1447625,320030003011,1653350515,EarthLink,49.95,10.0,1.0,Mbps,Fiber Based,EarthLink Internet 10M,1000.0,99.95,Slow (<25 Mbps),,0.9760359460808788,least white,38284.0,20093.0,Low,3115.415005008306,2.0,0.7033898305084746,CenturyLink
"1928 H St Las Vegas, NV 89106",las vegas,NV,36.1935331,-115.1515421,320030003011,1652191413,EarthLink,49.95,10.0,1.0,Mbps,Fiber Based,EarthLink Internet 10M,1000.0,99.95,Slow (<25 Mbps),,0.9760359460808788,least white,38284.0,20093.0,Low,3115.415005008306,2.0,0.7033898305084746,CenturyLink
"508 Frederick Ave Las Vegas, NV 89106",las vegas,NV,36.1925788,-115.1489461,320030003011,1652173405,EarthLink,49.95,10.0,1.0,Mbps,Fiber Based,EarthLink Internet 10M,1000.0,99.95,Slow (<25 Mbps),,0.9760359460808788,least white,38284.0,20093.0,Low,3115.415005008306,2.0,0.7033898305084746,CenturyLink
"1941 Leona St Las Vegas, NV 89106",las vegas,NV,36.194101,-115.144501,320030003011,1651978908,EarthLink,49.95,10.0,1.0,Mbps,Fiber Based,EarthLink Internet 10M,1000.0,99.95,Slow (<25 Mbps),,0.9760359460808788,least white,38284.0,20093.0,Low,3115.415005008306,2.0,0.7033898305084746,CenturyLink
"605 Byrnes Ave Las Vegas, NV 89106",las vegas,NV,36.191433,-115.1504936,320030003011,1652033294,EarthLink,49.95,10.0,1.0,Mbps,Fiber Based,EarthLink Internet 10M,1000.0,99.95,Slow (<25 Mbps),,0.9760359460808788,least white,38284.0,20093.0,Low,3115.415005008306,2.0,0.7033898305084746,CenturyLink
"6517 Bourbon Way Las Vegas, NV 89107",las vegas,NV,36.1641041,-115.2375644,320030001031,1650708204,EarthLink,49.95,10.0,1.0,Mbps,Fiber Based,EarthLink Internet 10M,1000.0,99.95,Slow (<25 Mbps),,0.7108886107634543,least white,54554.0,3823.0,Middle-Lower,2788.782045688557,2.0,0.6329588014981273,CenturyLink
"6524 Bourbon Way Las Vegas, NV 89107",las vegas,NV,36.1645161,-115.2379494,320030001031,1650708184,EarthLink,49.95,10.0,1.0,Mbps,Fiber Based,EarthLink Internet 10M,1000.0,99.95,Slow (<25 Mbps),,0.7108886107634543,least white,54554.0,3823.0,Middle-Lower,2788.782045688557,2.0,0.6329588014981273,CenturyLink
"6544 Bourbon Way Las Vegas, NV 89107",las vegas,NV,36.1645157,-115.2389767,320030001031,1650708174,EarthLink,49.95,10.0,1.0,Mbps,Fiber Based,EarthLink Internet 10M,1000.0,99.95,Slow (<25 Mbps),,0.7108886107634543,least white,54554.0,3823.0,Middle-Lower,2788.782045688557,2.0,0.6329588014981273,CenturyLink
"6552 Bristol Way Las Vegas, NV 89107",las vegas,NV,36.1638063,-115.2396169,320030001031,1650708182,EarthLink,49.95,10.0,1.0,Mbps,Fiber Based,EarthLink Internet 10M,1000.0,99.95,Slow (<25 Mbps),,0.7108886107634543,least white,54554.0,3823.0,Middle-Lower,2788.782045688557,2.0,0.6329588014981273,CenturyLink
"6525 Burgundy Way Las Vegas, NV 89107",las vegas,NV,36.1654855,-115.2379503,320030001031,1650708157,EarthLink,49.95,10.0,1.0,Mbps,Fiber Based,EarthLink Internet 10M,1000.0,99.95,Slow (<25 Mbps),,0.7108886107634543,least white,54554.0,3823.0,Middle-Lower,2788.782045688557,2.0,0.6329588014981273,CenturyLink
"6628 Burgundy Way Las Vegas, NV 89107",las vegas,NV,36.165904,-115.2418306,320030001031,1650708209,EarthLink,49.95,10.0,1.0,Mbps,Fiber Based,EarthLink Internet 10M,1000.0,99.95,Slow (<25 Mbps),,0.7108886107634543,least white,54554.0,3823.0,Middle-Lower,2788.782045688557,2.0,0.6329588014981273,CenturyLink
"6524 Brandywine Way Las Vegas, NV 89107",las vegas,NV,36.1652086,-115.2379449,320030001031,1650708210,EarthLink,49.95,10.0,1.0,Mbps,Fiber Based,EarthLink Internet 10M,1000.0,99.95,Slow (<25 Mbps),,0.7108886107634543,least white,54554.0,3823.0,Middle-Lower,2788.782045688557,2.0,0.6329588014981273,CenturyLink
"6625 Burgundy Way Las Vegas, NV 89107",las vegas,NV,36.1654887,-115.2415803,320030001031,1650708239,EarthLink,49.95,10.0,1.0,Mbps,Fiber Based,EarthLink Internet 10M,1000.0,99.95,Slow (<25 Mbps),,0.7108886107634543,least white,54554.0,3823.0,Middle-Lower,2788.782045688557,2.0,0.6329588014981273,CenturyLink
"6608 Burgundy Way Las Vegas, NV 89107",las vegas,NV,36.1659058,-115.2406077,320030001031,1650708118,EarthLink,49.95,10.0,1.0,Mbps,Fiber Based,EarthLink Internet 10M,1000.0,99.95,Slow (<25 Mbps),,0.7108886107634543,least white,54554.0,3823.0,Middle-Lower,2788.782045688557,2.0,0.6329588014981273,CenturyLink
"6608 Brandywine Way Las Vegas, NV 89107",las vegas,NV,36.1652149,-115.2406514,320030001031,1650708115,EarthLink,49.95,10.0,1.0,Mbps,Fiber Based,EarthLink Internet 10M,1000.0,99.95,Slow (<25 Mbps),,0.7108886107634543,least white,54554.0,3823.0,Middle-Lower,2788.782045688557,2.0,0.6329588014981273,CenturyLink
"6521 Brandywine Way Las Vegas, NV 89107",las vegas,NV,36.1647949,-115.2377525,320030001031,1650708224,EarthLink,49.95,10.0,1.0,Mbps,Fiber Based,EarthLink Internet 10M,1000.0,99.95,Slow (<25 Mbps),,0.7108886107634543,least white,54554.0,3823.0,Middle-Lower,2788.782045688557,2.0,0.6329588014981273,CenturyLink
"6613 Brandywine Way Las Vegas, NV 89107",las vegas,NV,36.1648036,-115.2408812,320030001031,1650708253,EarthLink,49.95,10.0,1.0,Mbps,Fiber Based,EarthLink Internet 10M,1000.0,99.95,Slow (<25 Mbps),,0.7108886107634543,least white,54554.0,3823.0,Middle-Lower,2788.782045688557,2.0,0.6329588014981273,CenturyLink
"6521 Burgundy Way Las Vegas, NV 89107",las vegas,NV,36.1654854,-115.2377455,320030001031,1650708199,EarthLink,49.95,10.0,1.0,Mbps,Fiber Based,EarthLink Internet 10M,1000.0,99.95,Slow (<25 Mbps),,0.7108886107634543,least white,54554.0,3823.0,Middle-Lower,2788.782045688557,2.0,0.6329588014981273,CenturyLink
"6561 Burgundy Way Las Vegas, NV 89107",las vegas,NV,36.1654916,-115.2398102,320030001031,1650708174,EarthLink,49.95,10.0,1.0,Mbps,Fiber Based,EarthLink Internet 10M,1000.0,99.95,Slow (<25 Mbps),,0.7108886107634543,least white,54554.0,3823.0,Middle-Lower,2788.782045688557,2.0,0.6329588014981273,CenturyLink
"6508 Bourbon Way Las Vegas, NV 89107",las vegas,NV,36.1645171,-115.2371396,320030001031,1650708120,EarthLink,49.95,10.0,1.0,Mbps,Fiber Based,EarthLink Internet 10M,1000.0,99.95,Slow (<25 Mbps),,0.7108886107634543,least white,54554.0,3823.0,Middle-Lower,2788.782045688557,2.0,0.6329588014981273,CenturyLink
"6557 Burgundy Way Las Vegas, NV 89107",las vegas,NV,36.1654934,-115.2395813,320030001031,1650708155,EarthLink,49.95,10.0,1.0,Mbps,Fiber Based,EarthLink Internet 10M,1000.0,99.95,Slow (<25 Mbps),,0.7108886107634543,least white,54554.0,3823.0,Middle-Lower,2788.782045688557,2.0,0.6329588014981273,CenturyLink
"6541 Bourbon Way Las Vegas, NV 89107",las vegas,NV,36.1641029,-115.2387993,320030001031,1650708235,EarthLink,49.95,10.0,1.0,Mbps,Fiber Based,EarthLink Internet 10M,1000.0,99.95,Slow (<25 Mbps),,0.7108886107634543,least white,54554.0,3823.0,Middle-Lower,2788.782045688557,2.0,0.6329588014981273,CenturyLink
"6512 Brandywine Way Las Vegas, NV 89107",las vegas,NV,36.1652078,-115.2373323,320030001031,1650708157,EarthLink,49.95,10.0,1.0,Mbps,Fiber Based,EarthLink Internet 10M,1000.0,99.95,Slow (<25 Mbps),,0.7108886107634543,least white,54554.0,3823.0,Middle-Lower,2788.782045688557,2.0,0.6329588014981273,CenturyLink
"6624 Brandywine Way Las Vegas, NV 89107",las vegas,NV,36.1652165,-115.241594,320030001031,1650708204,EarthLink,49.95,10.0,1.0,Mbps,Fiber Based,EarthLink Internet 10M,1000.0,99.95,Slow (<25 Mbps),,0.7108886107634543,least white,54554.0,3823.0,Middle-Lower,2788.782045688557,2.0,0.6329588014981273,CenturyLink
"8329 Monico Valley Ct Las Vegas, NV 89128",las vegas,NV,36.1819621,-115.2764838,320030032206,1652850153,EarthLink,49.95,15.0,0.75,Mbps,Copper,EarthLink Internet 15M,15.0,49.95,Slow (<25 Mbps),,0.3278688524590163,most white,74491.0,-16114.0,Middle-Upper,980.9150382851676,2.0,0.75,CenturyLink
"8333 Classic Villa Ct Las Vegas, NV 89128",las vegas,NV,36.1827116,-115.2766922,320030032206,1653055418,EarthLink,49.95,15.0,0.75,Mbps,Copper,EarthLink Internet 15M,15.0,49.95,Slow (<25 Mbps),,0.3278688524590163,most white,74491.0,-16114.0,Middle-Upper,980.9150382851676,2.0,0.75,CenturyLink
"8324 Monico Valley Ct Las Vegas, NV 89128",las vegas,NV,36.1824353,-115.2763338,320030032206,1652209287,EarthLink,59.95,30.0,1.5,Mbps,Copper,EarthLink Internet 30M,30.0,59.95,Medium (25-99),,0.3278688524590163,most white,74491.0,-16114.0,Middle-Upper,980.9150382851676,2.0,0.75,CenturyLink
"8321 Monico Valley Ct Las Vegas, NV 89128",las vegas,NV,36.1819821,-115.2761897,320030032206,1651590190,EarthLink,49.95,15.0,0.75,Mbps,Copper,EarthLink Internet 15M,15.0,49.95,Slow (<25 Mbps),,0.3278688524590163,most white,74491.0,-16114.0,Middle-Upper,980.9150382851676,2.0,0.75,CenturyLink
"8341 Grand Pacific Dr Las Vegas, NV 89128",las vegas,NV,36.1834338,-115.2771508,320030032206,1651831383,EarthLink,59.95,30.0,1.5,Mbps,Copper,EarthLink Internet 30M,60.0,69.95,Medium (25-99),,0.3278688524590163,most white,74491.0,-16114.0,Middle-Upper,980.9150382851676,2.0,0.75,CenturyLink
"8337 Classic Villa Ct Las Vegas, NV 89128",las vegas,NV,36.1826802,-115.2768338,320030032206,1651989838,EarthLink,49.95,15.0,0.75,Mbps,Copper,EarthLink Internet 15M,15.0,49.95,Slow (<25 Mbps),,0.3278688524590163,most white,74491.0,-16114.0,Middle-Upper,980.9150382851676,2.0,0.75,CenturyLink
"8329 Classic Villa Ct Las Vegas, NV 89128",las vegas,NV,36.1827336,-115.2765494,320030032206,1652263362,EarthLink,49.95,15.0,0.75,Mbps,Copper,EarthLink Internet 15M,15.0,49.95,Slow (<25 Mbps),,0.3278688524590163,most white,74491.0,-16114.0,Middle-Upper,980.9150382851676,2.0,0.75,CenturyLink
"432 Antelope Way Las Vegas, NV 89145",las vegas,NV,36.1670266,-115.2512273,320030030052,1653393621,EarthLink,49.95,15.0,0.75,Mbps,Copper,EarthLink Internet 15M,15.0,49.95,Slow (<25 Mbps),,0.5930787589498807,less white,56908.0,1469.0,Middle-Lower,2581.098229576059,2.0,0.9523809523809524,CenturyLink
"308 Huntly Rd Las Vegas, NV 89145",las vegas,NV,36.1698063,-115.2594075,320030030052,1653138214,EarthLink,49.95,15.0,0.75,Mbps,Copper,EarthLink Internet 15M,100.0,79.95,Slow (<25 Mbps),,0.5930787589498807,less white,56908.0,1469.0,Middle-Lower,2581.098229576059,2.0,0.9523809523809524,CenturyLink
"7105 Pinelake Rd Las Vegas, NV 89145",las vegas,NV,36.1670762,-115.2533995,320030030052,1652846583,EarthLink,49.95,15.0,0.75,Mbps,Copper,EarthLink Internet 15M,100.0,79.95,Slow (<25 Mbps),,0.5930787589498807,less white,56908.0,1469.0,Middle-Lower,2581.098229576059,2.0,0.9523809523809524,CenturyLink
"7409 Bagdad Ct Las Vegas, NV 89145",las vegas,NV,36.1681623,-115.2583622,320030030052,1652792489,EarthLink,49.95,15.0,0.75,Mbps,Copper,EarthLink Internet 15M,100.0,79.95,Slow (<25 Mbps),,0.5930787589498807,less white,56908.0,1469.0,Middle-Lower,2581.098229576059,2.0,0.9523809523809524,CenturyLink
"321 Analisa Ln Las Vegas, NV 89145",las vegas,NV,36.1688205,-115.2572366,320030030052,1652302901,EarthLink,49.95,15.0,0.75,Mbps,Copper,EarthLink Internet 15M,100.0,79.95,Slow (<25 Mbps),,0.5930787589498807,less white,56908.0,1469.0,Middle-Lower,2581.098229576059,2.0,0.9523809523809524,CenturyLink
"325 Pinecliff Dr Las Vegas, NV 89145",las vegas,NV,36.1687029,-115.2515908,320030030052,1651950224,EarthLink,49.95,15.0,0.75,Mbps,Copper,EarthLink Internet 15M,100.0,79.95,Slow (<25 Mbps),,0.5930787589498807,less white,56908.0,1469.0,Middle-Lower,2581.098229576059,2.0,0.9523809523809524,CenturyLink
"7028 Pinelake Rd Las Vegas, NV 89145",las vegas,NV,36.1675337,-115.2526594,320030030052,1653213787,EarthLink,49.95,15.0,0.75,Mbps,Copper,EarthLink Internet 15M,100.0,79.95,Slow (<25 Mbps),,0.5930787589498807,less white,56908.0,1469.0,Middle-Lower,2581.098229576059,2.0,0.9523809523809524,CenturyLink
"7308 Alta Dr Las Vegas, NV 89145",las vegas,NV,36.166764,-115.2569188,320030030052,1652076114,EarthLink,49.95,15.0,0.75,Mbps,Copper,EarthLink Internet 15M,100.0,79.95,Slow (<25 Mbps),,0.5930787589498807,less white,56908.0,1469.0,Middle-Lower,2581.098229576059,2.0,0.9523809523809524,CenturyLink
"7309 Bataan St Las Vegas, NV 89145",las vegas,NV,36.1677307,-115.257306,320030030052,1653213670,EarthLink,49.95,15.0,0.75,Mbps,Copper,EarthLink Internet 15M,100.0,79.95,Slow (<25 Mbps),,0.5930787589498807,less white,56908.0,1469.0,Middle-Lower,2581.098229576059,2.0,0.9523809523809524,CenturyLink
"413 Huntly Rd Las Vegas, NV 89145",las vegas,NV,36.1678828,-115.2588921,320030030052,1652868077,EarthLink,49.95,15.0,0.75,Mbps,Copper,EarthLink Internet 15M,100.0,79.95,Slow (<25 Mbps),,0.5930787589498807,less white,56908.0,1469.0,Middle-Lower,2581.098229576059,2.0,0.9523809523809524,CenturyLink
"329 Huntly Rd Las Vegas, NV 89145",las vegas,NV,36.168816,-115.2588883,320030030052,1652745855,EarthLink,49.95,15.0,0.75,Mbps,Copper,EarthLink Internet 15M,100.0,79.95,Slow (<25 Mbps),,0.5930787589498807,less white,56908.0,1469.0,Middle-Lower,2581.098229576059,2.0,0.9523809523809524,CenturyLink
"328 Huntly Rd Las Vegas, NV 89145",las vegas,NV,36.1688881,-115.2594158,320030030052,1651615363,EarthLink,49.95,15.0,0.75,Mbps,Copper,EarthLink Internet 15M,100.0,79.95,Slow (<25 Mbps),,0.5930787589498807,less white,56908.0,1469.0,Middle-Lower,2581.098229576059,2.0,0.9523809523809524,CenturyLink
"416 Lakehurst Rd Las Vegas, NV 89145",las vegas,NV,36.1676551,-115.2547675,320030030052,1651651464,EarthLink,49.95,15.0,0.75,Mbps,Copper,EarthLink Internet 15M,100.0,79.95,Slow (<25 Mbps),,0.5930787589498807,less white,56908.0,1469.0,Middle-Lower,2581.098229576059,2.0,0.9523809523809524,CenturyLink
"7405 Wandercloud Ln Las Vegas, NV 89145",las vegas,NV,36.1704003,-115.2577607,320030030052,1652243087,EarthLink,49.95,10.0,1.0,Mbps,Copper,EarthLink Internet 10M,10.0,49.95,Slow (<25 Mbps),,0.5930787589498807,less white,56908.0,1469.0,Middle-Lower,2581.098229576059,2.0,0.9523809523809524,CenturyLink
"405 Pinecliff Dr Las Vegas, NV 89145",las vegas,NV,36.1683456,-115.2515926,320030030052,1651978953,EarthLink,49.95,15.0,0.75,Mbps,Copper,EarthLink Internet 15M,100.0,79.95,Slow (<25 Mbps),,0.5930787589498807,less white,56908.0,1469.0,Middle-Lower,2581.098229576059,2.0,0.9523809523809524,CenturyLink
"413 Altamira Rd Las Vegas, NV 89145",las vegas,NV,36.1677808,-115.2555373,320030030052,1651766526,EarthLink,49.95,15.0,0.75,Mbps,Copper,EarthLink Internet 15M,100.0,79.95,Slow (<25 Mbps),,0.5930787589498807,less white,56908.0,1469.0,Middle-Lower,2581.098229576059,2.0,0.9523809523809524,CenturyLink
"7312 Aragon St Las Vegas, NV 89145",las vegas,NV,36.1674536,-115.2570954,320030030052,1651557687,EarthLink,49.95,15.0,0.75,Mbps,Copper,EarthLink Internet 15M,100.0,79.95,Slow (<25 Mbps),,0.5930787589498807,less white,56908.0,1469.0,Middle-Lower,2581.098229576059,2.0,0.9523809523809524,CenturyLink
"7120 Alta Dr Las Vegas, NV 89145",las vegas,NV,36.1667724,-115.2543382,320030030052,1652000713,EarthLink,49.95,15.0,0.75,Mbps,Copper,EarthLink Internet 15M,100.0,79.95,Slow (<25 Mbps),,0.5930787589498807,less white,56908.0,1469.0,Middle-Lower,2581.098229576059,2.0,0.9523809523809524,CenturyLink
"7201 Aragon St Las Vegas, NV 89145",las vegas,NV,36.1670178,-115.2556856,320030030052,1653159748,EarthLink,49.95,15.0,0.75,Mbps,Copper,EarthLink Internet 15M,100.0,79.95,Slow (<25 Mbps),,0.5930787589498807,less white,56908.0,1469.0,Middle-Lower,2581.098229576059,2.0,0.9523809523809524,CenturyLink
"7032 Pinelake Rd Las Vegas, NV 89145",las vegas,NV,36.1675346,-115.2528832,320030030052,1653012311,EarthLink,49.95,15.0,0.75,Mbps,Copper,EarthLink Internet 15M,100.0,79.95,Slow (<25 Mbps),,0.5930787589498807,less white,56908.0,1469.0,Middle-Lower,2581.098229576059,2.0,0.9523809523809524,CenturyLink
"7301 Pinedale Ave Las Vegas, NV 89145",las vegas,NV,36.1696683,-115.2567035,320030030052,1653019604,EarthLink,49.95,15.0,0.75,Mbps,Copper,EarthLink Internet 15M,80.0,69.95,Slow (<25 Mbps),,0.5930787589498807,less white,56908.0,1469.0,Middle-Lower,2581.098229576059,2.0,0.9523809523809524,CenturyLink
"417 Altamira Rd Las Vegas, NV 89145",las vegas,NV,36.1675998,-115.2555379,320030030052,1651705330,EarthLink,49.95,15.0,0.75,Mbps,Copper,EarthLink Internet 15M,100.0,79.95,Slow (<25 Mbps),,0.5930787589498807,less white,56908.0,1469.0,Middle-Lower,2581.098229576059,2.0,0.9523809523809524,CenturyLink
"7305 Aragon St Las Vegas, NV 89145",las vegas,NV,36.1670366,-115.2566879,320030030052,1652425342,EarthLink,49.95,15.0,0.75,Mbps,Copper,EarthLink Internet 15M,100.0,79.95,Slow (<25 Mbps),,0.5930787589498807,less white,56908.0,1469.0,Middle-Lower,2581.098229576059,2.0,0.9523809523809524,CenturyLink
"321 Lakehurst Rd Las Vegas, NV 89145",las vegas,NV,36.1686887,-115.2545792,320030030052,1653487381,EarthLink,49.95,15.0,0.75,Mbps,Copper,EarthLink Internet 15M,80.0,69.95,Slow (<25 Mbps),,0.5930787589498807,less white,56908.0,1469.0,Middle-Lower,2581.098229576059,2.0,0.9523809523809524,CenturyLink
"7310 Red Cinder St Las Vegas, NV 89131",las vegas,NV,36.2930452,-115.2560972,320030033211,1652252504,EarthLink,49.95,15.0,0.75,Mbps,Copper,EarthLink Internet 15M,15.0,49.95,Slow (<25 Mbps),,0.2637008381689232,most white,122159.0,-63782.0,Upper Income,1222.6953060640485,2.0,0.9764243614931236,CenturyLink
"7740 Pleasant Slopes Ct Las Vegas, NV 89131",las vegas,NV,36.3012426,-115.2550475,320030033211,1652644884,EarthLink,49.95,10.0,1.0,Mbps,Fiber Based,EarthLink Internet 10M,1000.0,99.95,Slow (<25 Mbps),,0.2637008381689232,most white,122159.0,-63782.0,Upper Income,1222.6953060640485,2.0,0.9764243614931236,CenturyLink
"7250 Sandy Plains Ave Las Vegas, NV 89131",las vegas,NV,36.296694,-115.2530983,320030033211,1653134481,EarthLink,49.95,10.0,1.0,Mbps,Fiber Based,EarthLink Internet 10M,1000.0,99.95,Slow (<25 Mbps),,0.2637008381689232,most white,122159.0,-63782.0,Upper Income,1222.6953060640485,2.0,0.9764243614931236,CenturyLink
"7320 Real Quiet Dr Las Vegas, NV 89131",las vegas,NV,36.301248,-115.2541246,320030033211,1653177773,EarthLink,49.95,10.0,1.0,Mbps,Fiber Based,EarthLink Internet 10M,1000.0,99.95,Slow (<25 Mbps),,0.2637008381689232,most white,122159.0,-63782.0,Upper Income,1222.6953060640485,2.0,0.9764243614931236,CenturyLink
"7320 Shallowford Ave Las Vegas, NV 89131",las vegas,NV,36.2975194,-115.254473,320030033211,1653188489,EarthLink,49.95,10.0,1.0,Mbps,Fiber Based,EarthLink Internet 10M,1000.0,99.95,Slow (<25 Mbps),,0.2637008381689232,most white,122159.0,-63782.0,Upper Income,1222.6953060640485,2.0,0.9764243614931236,CenturyLink
"7511 Arborcrest Ave Las Vegas, NV 89131",las vegas,NV,36.294781,-115.2579746,320030033211,1653339744,EarthLink,49.95,15.0,0.75,Mbps,Copper,EarthLink Internet 15M,15.0,49.95,Slow (<25 Mbps),,0.2637008381689232,most white,122159.0,-63782.0,Upper Income,1222.6953060640485,2.0,0.9764243614931236,CenturyLink
"7231 Bachelors Button Dr Las Vegas, NV 89131",las vegas,NV,36.2981533,-115.2534632,320030033211,1651637060,EarthLink,49.95,10.0,1.0,Mbps,Fiber Based,EarthLink Internet 10M,1000.0,99.95,Slow (<25 Mbps),,0.2637008381689232,most white,122159.0,-63782.0,Upper Income,1222.6953060640485,2.0,0.9764243614931236,CenturyLink
"7341 Fruitful Harvest Ave Las Vegas, NV 89131",las vegas,NV,36.3034764,-115.2548508,320030033211,1652155520,EarthLink,49.95,10.0,1.0,Mbps,Fiber Based,EarthLink Internet 10M,100.0,79.95,Slow (<25 Mbps),,0.2637008381689232,most white,122159.0,-63782.0,Upper Income,1222.6953060640485,2.0,0.9764243614931236,CenturyLink
"7751 Pleasant Slopes Ct Las Vegas, NV 89131",las vegas,NV,36.3008228,-115.2557102,320030033211,1651626249,EarthLink,49.95,10.0,1.0,Mbps,Fiber Based,EarthLink Internet 10M,1000.0,99.95,Slow (<25 Mbps),,0.2637008381689232,most white,122159.0,-63782.0,Upper Income,1222.6953060640485,2.0,0.9764243614931236,CenturyLink
"7220 Real Quiet Dr Las Vegas, NV 89131",las vegas,NV,36.3012473,-115.2527678,320030033211,1652115872,EarthLink,49.95,10.0,1.0,Mbps,Fiber Based,EarthLink Internet 10M,1000.0,99.95,Slow (<25 Mbps),,0.2637008381689232,most white,122159.0,-63782.0,Upper Income,1222.6953060640485,2.0,0.9764243614931236,CenturyLink
"7380 Abundant Harvest Ave Las Vegas, NV 89131",las vegas,NV,36.3030029,-115.2554289,320030033211,1651651368,EarthLink,49.95,10.0,1.0,Mbps,Fiber Based,EarthLink Internet 10M,100.0,79.95,Slow (<25 Mbps),,0.2637008381689232,most white,122159.0,-63782.0,Upper Income,1222.6953060640485,2.0,0.9764243614931236,CenturyLink
"7340 Shallowford Ave Las Vegas, NV 89131",las vegas,NV,36.2975213,-115.2551508,320030033211,1651833068,EarthLink,49.95,10.0,1.0,Mbps,Fiber Based,EarthLink Internet 10M,1000.0,99.95,Slow (<25 Mbps),,0.2637008381689232,most white,122159.0,-63782.0,Upper Income,1222.6953060640485,2.0,0.9764243614931236,CenturyLink
"7410 Cedar Rae Ave Las Vegas, NV 89131",las vegas,NV,36.2966842,-115.2569263,320030033211,1651597312,EarthLink,49.95,15.0,0.75,Mbps,Copper,EarthLink Internet 15M,15.0,49.95,Slow (<25 Mbps),,0.2637008381689232,most white,122159.0,-63782.0,Upper Income,1222.6953060640485,2.0,0.9764243614931236,CenturyLink
"7411 Arborcrest Ave Las Vegas, NV 89131",las vegas,NV,36.2947787,-115.2569472,320030033211,1652141049,EarthLink,49.95,15.0,0.75,Mbps,Copper,EarthLink Internet 15M,15.0,49.95,Slow (<25 Mbps),,0.2637008381689232,most white,122159.0,-63782.0,Upper Income,1222.6953060640485,2.0,0.9764243614931236,CenturyLink
"7251 Orchard Harvest Ave Las Vegas, NV 89131",las vegas,NV,36.3042643,-115.2525948,320030033211,1651825954,EarthLink,49.95,10.0,1.0,Mbps,Fiber Based,EarthLink Internet 10M,100.0,79.95,Slow (<25 Mbps),,0.2637008381689232,most white,122159.0,-63782.0,Upper Income,1222.6953060640485,2.0,0.9764243614931236,CenturyLink
"7221 Real Quiet Dr Las Vegas, NV 89131",las vegas,NV,36.3007673,-115.2527294,320030033211,1651968247,EarthLink,49.95,10.0,1.0,Mbps,Fiber Based,EarthLink Internet 10M,1000.0,99.95,Slow (<25 Mbps),,0.2637008381689232,most white,122159.0,-63782.0,Upper Income,1222.6953060640485,2.0,0.9764243614931236,CenturyLink
"7251 Shallowford Ave Las Vegas, NV 89131",las vegas,NV,36.2970548,-115.2530956,320030033211,1652536899,EarthLink,49.95,10.0,1.0,Mbps,Fiber Based,EarthLink Internet 10M,1000.0,99.95,Slow (<25 Mbps),,0.2637008381689232,most white,122159.0,-63782.0,Upper Income,1222.6953060640485,2.0,0.9764243614931236,CenturyLink
"7500 Cedar Rae Ave Las Vegas, NV 89131",las vegas,NV,36.2966868,-115.2579444,320030033211,1652054507,EarthLink,49.95,10.0,1.0,Mbps,Copper,EarthLink Internet 10M,10.0,49.95,Slow (<25 Mbps),,0.2637008381689232,most white,122159.0,-63782.0,Upper Income,1222.6953060640485,2.0,0.9764243614931236,CenturyLink
"7251 Fruitful Harvest Ave Las Vegas, NV 89131",las vegas,NV,36.3034762,-115.252544,320030033211,1652853684,EarthLink,49.95,10.0,1.0,Mbps,Fiber Based,EarthLink Internet 10M,100.0,79.95,Slow (<25 Mbps),,0.2637008381689232,most white,122159.0,-63782.0,Upper Income,1222.6953060640485,2.0,0.9764243614931236,CenturyLink
"7360 Real Quiet Dr Las Vegas, NV 89131",las vegas,NV,36.3005204,-115.2554773,320030033211,1653375849,EarthLink,49.95,10.0,1.0,Mbps,Fiber Based,EarthLink Internet 10M,1000.0,99.95,Slow (<25 Mbps),,0.2637008381689232,most white,122159.0,-63782.0,Upper Income,1222.6953060640485,2.0,0.9764243614931236,CenturyLink
"7500 Apple Springs Ave Las Vegas, NV 89131",las vegas,NV,36.2959448,-115.2576221,320030033211,1652141077,EarthLink,49.95,15.0,0.75,Mbps,Copper,EarthLink Internet 15M,15.0,49.95,Slow (<25 Mbps),,0.2637008381689232,most white,122159.0,-63782.0,Upper Income,1222.6953060640485,2.0,0.9764243614931236,CenturyLink
"7267 Silver Charm Ct Las Vegas, NV 89131",las vegas,NV,36.2997287,-115.2541544,320030033211,1653070071,EarthLink,49.95,10.0,1.0,Mbps,Fiber Based,EarthLink Internet 10M,1000.0,99.95,Slow (<25 Mbps),,0.2637008381689232,most white,122159.0,-63782.0,Upper Income,1222.6953060640485,2.0,0.9764243614931236,CenturyLink
"7401 Arborcrest Ave Las Vegas, NV 89131",las vegas,NV,36.294777,-115.2565968,320030033211,1651705530,EarthLink,49.95,15.0,0.75,Mbps,Copper,EarthLink Internet 15M,15.0,49.95,Slow (<25 Mbps),,0.2637008381689232,most white,122159.0,-63782.0,Upper Income,1222.6953060640485,2.0,0.9764243614931236,CenturyLink
"7300 Sandy Plains Ave Las Vegas, NV 89131",las vegas,NV,36.2966985,-115.2539311,320030033211,1653217289,EarthLink,49.95,10.0,1.0,Mbps,Fiber Based,EarthLink Internet 10M,1000.0,99.95,Slow (<25 Mbps),,0.2637008381689232,most white,122159.0,-63782.0,Upper Income,1222.6953060640485,2.0,0.9764243614931236,CenturyLink
"7281 Abundant Harvest Ave Las Vegas, NV 89131",las vegas,NV,36.3025506,-115.253417,320030033211,1653487435,EarthLink,49.95,10.0,1.0,Mbps,Fiber Based,EarthLink Internet 10M,100.0,79.95,Slow (<25 Mbps),,0.2637008381689232,most white,122159.0,-63782.0,Upper Income,1222.6953060640485,2.0,0.9764243614931236,CenturyLink
"7201 Brook Crest Ave Las Vegas, NV 89131",las vegas,NV,36.294528,-115.2515795,320030033211,1650949263,EarthLink,49.95,10.0,1.0,Mbps,Fiber Based,EarthLink Internet 10M,1000.0,99.95,Slow (<25 Mbps),,0.2637008381689232,most white,122159.0,-63782.0,Upper Income,1222.6953060640485,2.0,0.9764243614931236,CenturyLink
"7311 Fresh Harvest Ave Las Vegas, NV 89131",las vegas,NV,36.3017632,-115.2543897,320030033211,1651989818,EarthLink,49.95,10.0,1.0,Mbps,Fiber Based,EarthLink Internet 10M,100.0,79.95,Slow (<25 Mbps),,0.2637008381689232,most white,122159.0,-63782.0,Upper Income,1222.6953060640485,2.0,0.9764243614931236,CenturyLink
"7430 Red Cinder St Las Vegas, NV 89131",las vegas,NV,36.2956519,-115.2559884,320030033211,1651968175,EarthLink,49.95,15.0,0.75,Mbps,Copper,EarthLink Internet 15M,15.0,49.95,Slow (<25 Mbps),,0.2637008381689232,most white,122159.0,-63782.0,Upper Income,1222.6953060640485,2.0,0.9764243614931236,CenturyLink
"7510 Hornblower Ave Las Vegas, NV 89131",las vegas,NV,36.2974997,-115.2583659,320030033211,1652137350,EarthLink,49.95,10.0,1.0,Mbps,Copper,EarthLink Internet 10M,10.0,49.95,Slow (<25 Mbps),,0.2637008381689232,most white,122159.0,-63782.0,Upper Income,1222.6953060640485,2.0,0.9764243614931236,CenturyLink
"7521 Cedargulf Ave Las Vegas, NV 89131",las vegas,NV,36.2910074,-115.2587715,320030033211,1651590489,EarthLink,49.95,10.0,1.0,Mbps,Copper,EarthLink Internet 10M,10.0,49.95,Slow (<25 Mbps),,0.2637008381689232,most white,122159.0,-63782.0,Upper Income,1222.6953060640485,2.0,0.9764243614931236,CenturyLink
"7260 Orchard Harvest Ave Las Vegas, NV 89131",las vegas,NV,36.3047083,-115.2528226,320030033211,1651921308,EarthLink,49.95,10.0,1.0,Mbps,Fiber Based,EarthLink Internet 10M,100.0,79.95,Slow (<25 Mbps),,0.2637008381689232,most white,122159.0,-63782.0,Upper Income,1222.6953060640485,2.0,0.9764243614931236,CenturyLink
"7361 Real Quiet Dr Las Vegas, NV 89131",las vegas,NV,36.3002089,-115.2550037,320030033211,1653008497,EarthLink,49.95,10.0,1.0,Mbps,Fiber Based,EarthLink Internet 10M,1000.0,99.95,Slow (<25 Mbps),,0.2637008381689232,most white,122159.0,-63782.0,Upper Income,1222.6953060640485,2.0,0.9764243614931236,CenturyLink
"7400 Brookwood Ave Las Vegas, NV 89131",las vegas,NV,36.2929893,-115.2567125,320030033211,1652709850,EarthLink,49.95,15.0,0.75,Mbps,Copper,EarthLink Internet 15M,15.0,49.95,Slow (<25 Mbps),,0.2637008381689232,most white,122159.0,-63782.0,Upper Income,1222.6953060640485,2.0,0.9764243614931236,CenturyLink
"7301 Abundant Harvest Ave Las Vegas, NV 89131",las vegas,NV,36.3025505,-115.2540937,320030033211,1652277688,EarthLink,49.95,10.0,1.0,Mbps,Fiber Based,EarthLink Internet 10M,100.0,79.95,Slow (<25 Mbps),,0.2637008381689232,most white,122159.0,-63782.0,Upper Income,1222.6953060640485,2.0,0.9764243614931236,CenturyLink
"7630 Victory Gallup St Las Vegas, NV 89131",las vegas,NV,36.2994006,-115.2515668,320030033211,1652076408,EarthLink,49.95,10.0,1.0,Mbps,Fiber Based,EarthLink Internet 10M,1000.0,99.95,Slow (<25 Mbps),,0.2637008381689232,most white,122159.0,-63782.0,Upper Income,1222.6953060640485,2.0,0.9764243614931236,CenturyLink
"7320 Fruitful Harvest Ave Las Vegas, NV 89131",las vegas,NV,36.3039223,-115.2545771,320030033211,1652184094,EarthLink,49.95,10.0,1.0,Mbps,Fiber Based,EarthLink Internet 10M,100.0,79.95,Slow (<25 Mbps),,0.2637008381689232,most white,122159.0,-63782.0,Upper Income,1222.6953060640485,2.0,0.9764243614931236,CenturyLink
"3305 Winterhaven St Las Vegas, NV 89108",las vegas,NV,36.2204503,-115.2447867,320030034123,1652140871,EarthLink,49.95,15.0,0.75,Mbps,Copper,EarthLink Internet 15M,40.0,69.95,Slow (<25 Mbps),,0.4975124378109453,less white,59375.0,-998.0,Middle-Lower,1280.0061134620344,2.0,0.8785046728971962,CenturyLink
"6801 High Bluff Way Las Vegas, NV 89108",las vegas,NV,36.2226271,-115.243686,320030034123,1652951298,EarthLink,49.95,15.0,0.75,Mbps,Copper,EarthLink Internet 15M,80.0,69.95,Slow (<25 Mbps),,0.4975124378109453,less white,59375.0,-998.0,Middle-Lower,1280.0061134620344,2.0,0.8785046728971962,CenturyLink
"6408 W Cheyenne Ave Las Vegas, NV 89108",las vegas,NV,36.2179083,-115.2346053,320030034123,1652936502,EarthLink,49.95,15.0,0.75,Mbps,Copper,EarthLink Internet 15M,100.0,79.95,Slow (<25 Mbps),,0.4975124378109453,less white,59375.0,-998.0,Middle-Lower,1280.0061134620344,2.0,0.8785046728971962,CenturyLink
"6800 High Bluff Way Las Vegas, NV 89108",las vegas,NV,36.2230404,-115.2436949,320030034123,1653451292,EarthLink,49.95,15.0,0.75,Mbps,Copper,EarthLink Internet 15M,80.0,69.95,Slow (<25 Mbps),,0.4975124378109453,less white,59375.0,-998.0,Middle-Lower,1280.0061134620344,2.0,0.8785046728971962,CenturyLink
"6812 Selkirk Cir Las Vegas, NV 89108",las vegas,NV,36.2209914,-115.2445281,320030034123,1652875294,EarthLink,49.95,15.0,0.75,Mbps,Copper,EarthLink Internet 15M,60.0,69.95,Slow (<25 Mbps),,0.4975124378109453,less white,59375.0,-998.0,Middle-Lower,1280.0061134620344,2.0,0.8785046728971962,CenturyLink
"6808 High Bluff Way Las Vegas, NV 89108",las vegas,NV,36.2230402,-115.2441453,320030034123,1651888827,EarthLink,49.95,15.0,0.75,Mbps,Copper,EarthLink Internet 15M,80.0,69.95,Slow (<25 Mbps),,0.4975124378109453,less white,59375.0,-998.0,Middle-Lower,1280.0061134620344,2.0,0.8785046728971962,CenturyLink
"6809 White Shell Cir Las Vegas, NV 89108",las vegas,NV,36.2233137,-115.2441365,320030034123,1651820513,EarthLink,49.95,15.0,0.75,Mbps,Copper,EarthLink Internet 15M,80.0,69.95,Slow (<25 Mbps),,0.4975124378109453,less white,59375.0,-998.0,Middle-Lower,1280.0061134620344,2.0,0.8785046728971962,CenturyLink
"6828 High Bluff Way Las Vegas, NV 89108",las vegas,NV,36.2230394,-115.2452462,320030034123,1652792470,EarthLink,49.95,15.0,0.75,Mbps,Copper,EarthLink Internet 15M,80.0,69.95,Slow (<25 Mbps),,0.4975124378109453,less white,59375.0,-998.0,Middle-Lower,1280.0061134620344,2.0,0.8785046728971962,CenturyLink
"6801 War Eagle Cir Las Vegas, NV 89108",las vegas,NV,36.2239995,-115.2436922,320030034123,1652137422,EarthLink,49.95,15.0,0.75,Mbps,Copper,EarthLink Internet 15M,80.0,69.95,Slow (<25 Mbps),,0.4975124378109453,less white,59375.0,-998.0,Middle-Lower,1280.0061134620344,2.0,0.8785046728971962,CenturyLink
"6813 Selkirk Cir Las Vegas, NV 89108",las vegas,NV,36.2205479,-115.2444543,320030034123,1652925726,EarthLink,49.95,15.0,0.75,Mbps,Copper,EarthLink Internet 15M,60.0,69.95,Slow (<25 Mbps),,0.4975124378109453,less white,59375.0,-998.0,Middle-Lower,1280.0061134620344,2.0,0.8785046728971962,CenturyLink
"6721 Rocking Horse Ave Las Vegas, NV 89108",las vegas,NV,36.2223611,-115.2403607,320030034123,1651741340,EarthLink,49.95,15.0,0.75,Mbps,Copper,EarthLink Internet 15M,60.0,69.95,Slow (<25 Mbps),,0.4975124378109453,less white,59375.0,-998.0,Middle-Lower,1280.0061134620344,2.0,0.8785046728971962,CenturyLink
"6805 Neepawa Cir Las Vegas, NV 89108",las vegas,NV,36.2219343,-115.2439087,320030034123,1651736109,EarthLink,49.95,15.0,0.75,Mbps,Copper,EarthLink Internet 15M,80.0,69.95,Slow (<25 Mbps),,0.4975124378109453,less white,59375.0,-998.0,Middle-Lower,1280.0061134620344,2.0,0.8785046728971962,CenturyLink
"6700 Willow Wood Ct Las Vegas, NV 89108",las vegas,NV,36.2253696,-115.2425968,320030034123,1650938514,EarthLink,49.95,15.0,0.75,Mbps,Copper,EarthLink Internet 15M,80.0,69.95,Slow (<25 Mbps),,0.4975124378109453,less white,59375.0,-998.0,Middle-Lower,1280.0061134620344,2.0,0.8785046728971962,CenturyLink
"3425 Winterhaven St Las Vegas, NV 89108",las vegas,NV,36.2232753,-115.2454361,320030034123,1652799783,EarthLink,49.95,15.0,0.75,Mbps,Copper,EarthLink Internet 15M,80.0,69.95,Slow (<25 Mbps),,0.4975124378109453,less white,59375.0,-998.0,Middle-Lower,1280.0061134620344,2.0,0.8785046728971962,CenturyLink
"6800 Waterhen Cir Las Vegas, NV 89108",las vegas,NV,36.2216603,-115.2436842,320030034123,1651806243,EarthLink,49.95,15.0,0.75,Mbps,Copper,EarthLink Internet 15M,80.0,69.95,Slow (<25 Mbps),,0.4975124378109453,less white,59375.0,-998.0,Middle-Lower,1280.0061134620344,2.0,0.8785046728971962,CenturyLink
"6701 Willow Lake Ct Las Vegas, NV 89108",las vegas,NV,36.2212926,-115.2425775,320030034123,1653108755,EarthLink,49.95,15.0,0.75,Mbps,Copper,EarthLink Internet 15M,80.0,69.95,Slow (<25 Mbps),,0.4975124378109453,less white,59375.0,-998.0,Middle-Lower,1280.0061134620344,2.0,0.8785046728971962,CenturyLink
"6704 Pine Needle Ct Las Vegas, NV 89108",las vegas,NV,36.2231101,-115.2429091,320030034123,1653080473,EarthLink,49.95,15.0,0.75,Mbps,Copper,EarthLink Internet 15M,80.0,69.95,Slow (<25 Mbps),,0.4975124378109453,less white,59375.0,-998.0,Middle-Lower,1280.0061134620344,2.0,0.8785046728971962,CenturyLink
"4105 Galva Ct Las Vegas, NV 89110",las vegas,NV,36.1854909,-115.0866303,320030005283,1650600925,EarthLink,49.95,15.0,0.75,Mbps,Copper,EarthLink Internet 15M,80.0,69.95,Slow (<25 Mbps),,0.9087389380530974,least white,39145.0,19232.0,Low,6991.033072071828,2.0,0.5657237936772047,CenturyLink
"4133 Dongola Ct Las Vegas, NV 89110",las vegas,NV,36.1862643,-115.0857566,320030005283,1650600921,EarthLink,49.95,15.0,0.75,Mbps,Copper,EarthLink Internet 15M,80.0,69.95,Slow (<25 Mbps),,0.9087389380530974,least white,39145.0,19232.0,Low,6991.033072071828,2.0,0.5657237936772047,CenturyLink
"4109 Arcola Ave Las Vegas, NV 89110",las vegas,NV,36.1876802,-115.0864288,320030005283,1650600921,EarthLink,49.95,15.0,0.75,Mbps,Copper,EarthLink Internet 15M,80.0,69.95,Slow (<25 Mbps),,0.9087389380530974,least white,39145.0,19232.0,Low,6991.033072071828,2.0,0.5657237936772047,CenturyLink
"4315 Lynnann Dr Las Vegas, NV 89110",las vegas,NV,36.1869223,-115.0818907,320030005283,1650600942,EarthLink,49.95,3.0,0.512,Mbps,Copper,EarthLink Internet 3M,3.0,49.95,Slow (<25 Mbps),,0.9087389380530974,least white,39145.0,19232.0,Low,6991.033072071828,2.0,0.5657237936772047,CenturyLink
"4105 Arcola Ave Las Vegas, NV 89110",las vegas,NV,36.1876555,-115.0865621,320030005283,1650600937,EarthLink,49.95,15.0,0.75,Mbps,Copper,EarthLink Internet 15M,80.0,69.95,Slow (<25 Mbps),,0.9087389380530974,least white,39145.0,19232.0,Low,6991.033072071828,2.0,0.5657237936772047,CenturyLink
"1516 Arlington Heights St Las Vegas, NV 89110",las vegas,NV,36.1869222,-115.0853101,320030005283,1650600936,EarthLink,49.95,15.0,0.75,Mbps,Copper,EarthLink Internet 15M,80.0,69.95,Slow (<25 Mbps),,0.9087389380530974,least white,39145.0,19232.0,Low,6991.033072071828,2.0,0.5657237936772047,CenturyLink
"4305 Lynnann Dr Las Vegas, NV 89110",las vegas,NV,36.1868136,-115.0821945,320030005283,1650600938,EarthLink,49.95,3.0,0.512,Mbps,Copper,EarthLink Internet 3M,3.0,49.95,Slow (<25 Mbps),,0.9087389380530974,least white,39145.0,19232.0,Low,6991.033072071828,2.0,0.5657237936772047,CenturyLink
"1528 Arlington Heights St Las Vegas, NV 89110",las vegas,NV,36.187258,-115.0852973,320030005283,1650600925,EarthLink,49.95,15.0,0.75,Mbps,Copper,EarthLink Internet 15M,80.0,69.95,Slow (<25 Mbps),,0.9087389380530974,least white,39145.0,19232.0,Low,6991.033072071828,2.0,0.5657237936772047,CenturyLink
"4140 Arcola Ave Las Vegas, NV 89110",las vegas,NV,36.18816,-115.0853813,320030005283,1650600936,EarthLink,49.95,15.0,0.75,Mbps,Copper,EarthLink Internet 15M,80.0,69.95,Slow (<25 Mbps),,0.9087389380530974,least white,39145.0,19232.0,Low,6991.033072071828,2.0,0.5657237936772047,CenturyLink
"4113 Galva Ct Las Vegas, NV 89110",las vegas,NV,36.1855103,-115.0863878,320030005283,1650600925,EarthLink,49.95,15.0,0.75,Mbps,Copper,EarthLink Internet 15M,80.0,69.95,Slow (<25 Mbps),,0.9087389380530974,least white,39145.0,19232.0,Low,6991.033072071828,2.0,0.5657237936772047,CenturyLink
"4137 Talavera Ct Las Vegas, NV 89110",las vegas,NV,36.1847642,-115.0856444,320030005283,1650600921,EarthLink,49.95,15.0,0.75,Mbps,Copper,EarthLink Internet 15M,80.0,69.95,Slow (<25 Mbps),,0.9087389380530974,least white,39145.0,19232.0,Low,6991.033072071828,2.0,0.5657237936772047,CenturyLink
"4141 Talavera Ct Las Vegas, NV 89110",las vegas,NV,36.1847829,-115.0854307,320030005283,1650600939,EarthLink,49.95,15.0,0.75,Mbps,Copper,EarthLink Internet 15M,80.0,69.95,Slow (<25 Mbps),,0.9087389380530974,least white,39145.0,19232.0,Low,6991.033072071828,2.0,0.5657237936772047,CenturyLink
"1548 Arlington Heights St Las Vegas, NV 89110",las vegas,NV,36.1877921,-115.0852645,320030005283,1650600939,EarthLink,49.95,15.0,0.75,Mbps,Copper,EarthLink Internet 15M,80.0,69.95,Slow (<25 Mbps),,0.9087389380530974,least white,39145.0,19232.0,Low,6991.033072071828,2.0,0.5657237936772047,CenturyLink
"1108 Pyrite Ln Las Vegas, NV 89128",las vegas,NV,36.1842541,-115.2638536,320030032204,1652137433,EarthLink,49.95,10.0,1.0,Mbps,Copper,EarthLink Internet 10M,10.0,49.95,Slow (<25 Mbps),,0.5187566988210075,less white,32500.0,25877.0,Low,2449.8927351358734,2.0,0.7101694915254237,CenturyLink
"1108 Mineral Springs Ct Las Vegas, NV 89128",las vegas,NV,36.1843222,-115.2617686,320030032204,1652090457,EarthLink,49.95,10.0,1.0,Mbps,Copper,EarthLink Internet 10M,10.0,49.95,Slow (<25 Mbps),,0.5187566988210075,less white,32500.0,25877.0,Low,2449.8927351358734,2.0,0.7101694915254237,CenturyLink
"1109 Pyrite Ln Las Vegas, NV 89128",las vegas,NV,36.1839524,-115.2642302,320030032204,1651604604,EarthLink,49.95,10.0,1.0,Mbps,Copper,EarthLink Internet 10M,10.0,49.95,Slow (<25 Mbps),,0.5187566988210075,less white,32500.0,25877.0,Low,2449.8927351358734,2.0,0.7101694915254237,CenturyLink
"1100 Byorick Way Las Vegas, NV 89128",las vegas,NV,36.1836619,-115.2646748,320030032204,1651957311,EarthLink,49.95,10.0,1.0,Mbps,Copper,EarthLink Internet 10M,10.0,49.95,Slow (<25 Mbps),,0.5187566988210075,less white,32500.0,25877.0,Low,2449.8927351358734,2.0,0.7101694915254237,CenturyLink
"1112 Halite Ct Las Vegas, NV 89128",las vegas,NV,36.1845416,-115.2627531,320030032204,1652710110,EarthLink,49.95,10.0,1.0,Mbps,Copper,EarthLink Internet 10M,10.0,49.95,Slow (<25 Mbps),,0.5187566988210075,less white,32500.0,25877.0,Low,2449.8927351358734,2.0,0.7101694915254237,CenturyLink
"1113 Halite Ct Las Vegas, NV 89128",las vegas,NV,36.1845018,-115.2632173,320030032204,1651979111,EarthLink,49.95,10.0,1.0,Mbps,Copper,EarthLink Internet 10M,10.0,49.95,Slow (<25 Mbps),,0.5187566988210075,less white,32500.0,25877.0,Low,2449.8927351358734,2.0,0.7101694915254237,CenturyLink
"7716 Bentonite Dr Las Vegas, NV 89128",las vegas,NV,36.1849166,-115.2626372,320030032204,1652900661,EarthLink,49.95,10.0,1.0,Mbps,Copper,EarthLink Internet 10M,10.0,49.95,Slow (<25 Mbps),,0.5187566988210075,less white,32500.0,25877.0,Low,2449.8927351358734,2.0,0.7101694915254237,CenturyLink
"1591 N Buffalo Dr Las Vegas, NV 89128",las vegas,NV,36.188378,-115.2606798,320030032204,1651889931,EarthLink,49.95,10.0,1.0,Mbps,Copper,EarthLink Internet 10M,10.0,49.95,Slow (<25 Mbps),,0.5187566988210075,less white,32500.0,25877.0,Low,2449.8927351358734,2.0,0.7101694915254237,CenturyLink
"1105 Halite Ct Las Vegas, NV 89128",las vegas,NV,36.1840386,-115.2632493,320030032204,1653314788,EarthLink,49.95,10.0,1.0,Mbps,Copper,EarthLink Internet 10M,10.0,49.95,Slow (<25 Mbps),,0.5187566988210075,less white,32500.0,25877.0,Low,2449.8927351358734,2.0,0.7101694915254237,CenturyLink
"7732 Bentonite Dr Las Vegas, NV 89128",las vegas,NV,36.1849086,-115.2635145,320030032204,1652465024,EarthLink,49.95,10.0,1.0,Mbps,Copper,EarthLink Internet 10M,10.0,49.95,Slow (<25 Mbps),,0.5187566988210075,less white,32500.0,25877.0,Low,2449.8927351358734,2.0,0.7101694915254237,CenturyLink
"7712 Bentonite Dr Las Vegas, NV 89128",las vegas,NV,36.1849184,-115.2624163,320030032204,1652188722,EarthLink,49.95,10.0,1.0,Mbps,Copper,EarthLink Internet 10M,10.0,49.95,Slow (<25 Mbps),,0.5187566988210075,less white,32500.0,25877.0,Low,2449.8927351358734,2.0,0.7101694915254237,CenturyLink
"1117 Byorick Way Las Vegas, NV 89128",las vegas,NV,36.1844103,-115.2643406,320030032204,1652670065,EarthLink,49.95,10.0,1.0,Mbps,Copper,EarthLink Internet 10M,10.0,49.95,Slow (<25 Mbps),,0.5187566988210075,less white,32500.0,25877.0,Low,2449.8927351358734,2.0,0.7101694915254237,CenturyLink
"7736 Bentonite Dr Las Vegas, NV 89128",las vegas,NV,36.1848956,-115.2637841,320030032204,1652069067,EarthLink,49.95,10.0,1.0,Mbps,Copper,EarthLink Internet 10M,10.0,49.95,Slow (<25 Mbps),,0.5187566988210075,less white,32500.0,25877.0,Low,2449.8927351358734,2.0,0.7101694915254237,CenturyLink
"1109 Mineral Springs Ct Las Vegas, NV 89128",las vegas,NV,36.1842251,-115.2623784,320030032204,1652652128,EarthLink,49.95,10.0,1.0,Mbps,Copper,EarthLink Internet 10M,10.0,49.95,Slow (<25 Mbps),,0.5187566988210075,less white,32500.0,25877.0,Low,2449.8927351358734,2.0,0.7101694915254237,CenturyLink
"1105 Byorick Way Las Vegas, NV 89128",las vegas,NV,36.1840302,-115.2648956,320030032204,1653404570,EarthLink,49.95,10.0,1.0,Mbps,Copper,EarthLink Internet 10M,10.0,49.95,Slow (<25 Mbps),,0.5187566988210075,less white,32500.0,25877.0,Low,2449.8927351358734,2.0,0.7101694915254237,CenturyLink
"1105 Pyrite Ln Las Vegas, NV 89128",las vegas,NV,36.1837719,-115.2640701,320030032204,1652319049,EarthLink,49.95,10.0,1.0,Mbps,Copper,EarthLink Internet 10M,10.0,49.95,Slow (<25 Mbps),,0.5187566988210075,less white,32500.0,25877.0,Low,2449.8927351358734,2.0,0.7101694915254237,CenturyLink
"7724 Bentonite Dr Las Vegas, NV 89128",las vegas,NV,36.1849132,-115.2630745,320030032204,1651600877,EarthLink,49.95,10.0,1.0,Mbps,Copper,EarthLink Internet 10M,10.0,49.95,Slow (<25 Mbps),,0.5187566988210075,less white,32500.0,25877.0,Low,2449.8927351358734,2.0,0.7101694915254237,CenturyLink
"1109 Byorick Way Las Vegas, NV 89128",las vegas,NV,36.184167,-115.2646631,320030032204,1652360419,EarthLink,49.95,10.0,1.0,Mbps,Copper,EarthLink Internet 10M,10.0,49.95,Slow (<25 Mbps),,0.5187566988210075,less white,32500.0,25877.0,Low,2449.8927351358734,2.0,0.7101694915254237,CenturyLink
"1108 Halite Ct Las Vegas, NV 89128",las vegas,NV,36.184347,-115.262753,320030032204,1651701880,EarthLink,49.95,10.0,1.0,Mbps,Copper,EarthLink Internet 10M,10.0,49.95,Slow (<25 Mbps),,0.5187566988210075,less white,32500.0,25877.0,Low,2449.8927351358734,2.0,0.7101694915254237,CenturyLink
"7704 Bentonite Dr Las Vegas, NV 89128",las vegas,NV,36.1849225,-115.2619799,320030032204,1652288456,EarthLink,49.95,10.0,1.0,Mbps,Copper,EarthLink Internet 10M,10.0,49.95,Slow (<25 Mbps),,0.5187566988210075,less white,32500.0,25877.0,Low,2449.8927351358734,2.0,0.7101694915254237,CenturyLink
"7737 Bentonite Dr Las Vegas, NV 89128",las vegas,NV,36.1844788,-115.2636893,320030032204,1651557756,EarthLink,49.95,10.0,1.0,Mbps,Copper,EarthLink Internet 10M,10.0,49.95,Slow (<25 Mbps),,0.5187566988210075,less white,32500.0,25877.0,Low,2449.8927351358734,2.0,0.7101694915254237,CenturyLink
"1113 Byorick Way Las Vegas, NV 89128",las vegas,NV,36.1842875,-115.2644978,320030032204,1652763907,EarthLink,49.95,10.0,1.0,Mbps,Copper,EarthLink Internet 10M,10.0,49.95,Slow (<25 Mbps),,0.5187566988210075,less white,32500.0,25877.0,Low,2449.8927351358734,2.0,0.7101694915254237,CenturyLink
"1104 Pyrite Ln Las Vegas, NV 89128",las vegas,NV,36.1840908,-115.2636999,320030032204,1653303608,EarthLink,49.95,10.0,1.0,Mbps,Copper,EarthLink Internet 10M,10.0,49.95,Slow (<25 Mbps),,0.5187566988210075,less white,32500.0,25877.0,Low,2449.8927351358734,2.0,0.7101694915254237,CenturyLink
"1501 N Buffalo Dr Las Vegas, NV 89128",las vegas,NV,36.1875195,-115.2606558,320030032204,1651943300,EarthLink,49.95,10.0,1.0,Mbps,Copper,EarthLink Internet 10M,10.0,49.95,Slow (<25 Mbps),,0.5187566988210075,less white,32500.0,25877.0,Low,2449.8927351358734,2.0,0.7101694915254237,CenturyLink
"7700 Bentonite Dr Las Vegas, NV 89128",las vegas,NV,36.1849262,-115.2617439,320030032204,1652799719,EarthLink,49.95,10.0,1.0,Mbps,Copper,EarthLink Internet 10M,10.0,49.95,Slow (<25 Mbps),,0.5187566988210075,less white,32500.0,25877.0,Low,2449.8927351358734,2.0,0.7101694915254237,CenturyLink
"7720 Bentonite Dr Las Vegas, NV 89128",las vegas,NV,36.184914,-115.2628567,320030032204,1652130381,EarthLink,49.95,10.0,1.0,Mbps,Copper,EarthLink Internet 10M,10.0,49.95,Slow (<25 Mbps),,0.5187566988210075,less white,32500.0,25877.0,Low,2449.8927351358734,2.0,0.7101694915254237,CenturyLink
"1100 Pyrite Ln Las Vegas, NV 89128",las vegas,NV,36.1839073,-115.2635853,320030032204,1652126594,EarthLink,49.95,10.0,1.0,Mbps,Copper,EarthLink Internet 10M,10.0,49.95,Slow (<25 Mbps),,0.5187566988210075,less white,32500.0,25877.0,Low,2449.8927351358734,2.0,0.7101694915254237,CenturyLink
"6460 Melody Rose Ave Las Vegas, NV 89108",las vegas,NV,36.2000628,-115.2347849,320030034192,1650715241,EarthLink,49.95,15.0,0.75,Mbps,Copper,EarthLink Internet 15M,80.0,69.95,Slow (<25 Mbps),,0.4914317302377003,less white,43088.0,15289.0,Low,5333.718595483588,2.0,0.7549668874172185,CenturyLink
"6448 Big Pine Way Las Vegas, NV 89108",las vegas,NV,36.2022203,-115.2344297,320030034192,1650715317,EarthLink,49.95,15.0,0.75,Mbps,Copper,EarthLink Internet 15M,80.0,69.95,Slow (<25 Mbps),,0.4914317302377003,less white,43088.0,15289.0,Low,5333.718595483588,2.0,0.7549668874172185,CenturyLink
"2220 Short Pine Dr Las Vegas, NV 89108",las vegas,NV,36.2012131,-115.2351637,320030034192,1650715279,EarthLink,49.95,15.0,0.75,Mbps,Copper,EarthLink Internet 15M,80.0,69.95,Slow (<25 Mbps),,0.4914317302377003,less white,43088.0,15289.0,Low,5333.718595483588,2.0,0.7549668874172185,CenturyLink
"6425 Little Pine Way Las Vegas, NV 89108",las vegas,NV,36.2005813,-115.2339332,320030034192,1650715249,EarthLink,49.95,15.0,0.75,Mbps,Copper,EarthLink Internet 15M,80.0,69.95,Slow (<25 Mbps),,0.4914317302377003,less white,43088.0,15289.0,Low,5333.718595483588,2.0,0.7549668874172185,CenturyLink
"6433 Addely Dr Las Vegas, NV 89108",las vegas,NV,36.2024428,-115.2341242,320030034192,1650715317,EarthLink,49.95,15.0,0.75,Mbps,Copper,EarthLink Internet 15M,80.0,69.95,Slow (<25 Mbps),,0.4914317302377003,less white,43088.0,15289.0,Low,5333.718595483588,2.0,0.7549668874172185,CenturyLink
"6444 Melody Rose Ave Las Vegas, NV 89108",las vegas,NV,36.2000597,-115.2343574,320030034192,1650715339,EarthLink,49.95,15.0,0.75,Mbps,Copper,EarthLink Internet 15M,80.0,69.95,Slow (<25 Mbps),,0.4914317302377003,less white,43088.0,15289.0,Low,5333.718595483588,2.0,0.7549668874172185,CenturyLink
"6473 Melody Rose Ave Las Vegas, NV 89108",las vegas,NV,36.1997877,-115.2351263,320030034192,1650715247,EarthLink,49.95,15.0,0.75,Mbps,Copper,EarthLink Internet 15M,80.0,69.95,Slow (<25 Mbps),,0.4914317302377003,less white,43088.0,15289.0,Low,5333.718595483588,2.0,0.7549668874172185,CenturyLink
"6441 Addely Dr Las Vegas, NV 89108",las vegas,NV,36.2024472,-115.2344024,320030034192,1650715231,EarthLink,49.95,15.0,0.75,Mbps,Copper,EarthLink Internet 15M,80.0,69.95,Slow (<25 Mbps),,0.4914317302377003,less white,43088.0,15289.0,Low,5333.718595483588,2.0,0.7549668874172185,CenturyLink
"6429 Big Pine Way Las Vegas, NV 89108",las vegas,NV,36.2017116,-115.233804,320030034192,1650715314,EarthLink,49.95,15.0,0.75,Mbps,Copper,EarthLink Internet 15M,80.0,69.95,Slow (<25 Mbps),,0.4914317302377003,less white,43088.0,15289.0,Low,5333.718595483588,2.0,0.7549668874172185,CenturyLink
"6421 Big Pine Way Las Vegas, NV 89108",las vegas,NV,36.2019565,-115.2337995,320030034192,1650715346,EarthLink,49.95,15.0,0.75,Mbps,Copper,EarthLink Internet 15M,80.0,69.95,Slow (<25 Mbps),,0.4914317302377003,less white,43088.0,15289.0,Low,5333.718595483588,2.0,0.7549668874172185,CenturyLink
"2260 Tall Pine Dr Las Vegas, NV 89108",las vegas,NV,36.2018926,-115.2335765,320030034192,1650715290,EarthLink,49.95,15.0,0.75,Mbps,Copper,EarthLink Internet 15M,80.0,69.95,Slow (<25 Mbps),,0.4914317302377003,less white,43088.0,15289.0,Low,5333.718595483588,2.0,0.7549668874172185,CenturyLink
"2209 Short Pine Dr Las Vegas, NV 89108",las vegas,NV,36.2009728,-115.2348798,320030034192,1650715360,EarthLink,49.95,15.0,0.75,Mbps,Copper,EarthLink Internet 15M,80.0,69.95,Slow (<25 Mbps),,0.4914317302377003,less white,43088.0,15289.0,Low,5333.718595483588,2.0,0.7549668874172185,CenturyLink
"6429 Little Pine Way Las Vegas, NV 89108",las vegas,NV,36.2005877,-115.2340186,320030034192,1650715240,EarthLink,49.95,15.0,0.75,Mbps,Copper,EarthLink Internet 15M,80.0,69.95,Slow (<25 Mbps),,0.4914317302377003,less white,43088.0,15289.0,Low,5333.718595483588,2.0,0.7549668874172185,CenturyLink
"2208 Tall Pine Dr Las Vegas, NV 89108",las vegas,NV,36.2009447,-115.2335973,320030034192,1650715346,EarthLink,49.95,15.0,0.75,Mbps,Copper,EarthLink Internet 15M,80.0,69.95,Slow (<25 Mbps),,0.4914317302377003,less white,43088.0,15289.0,Low,5333.718595483588,2.0,0.7549668874172185,CenturyLink
"6481 Little Pine Way Las Vegas, NV 89108",las vegas,NV,36.2006057,-115.2351391,320030034192,1650715346,EarthLink,49.95,15.0,0.75,Mbps,Copper,EarthLink Internet 15M,80.0,69.95,Slow (<25 Mbps),,0.4914317302377003,less white,43088.0,15289.0,Low,5333.718595483588,2.0,0.7549668874172185,CenturyLink
"6528 Smokey Pine Way Las Vegas, NV 89108",las vegas,NV,36.203086,-115.2367525,320030034192,1650715276,EarthLink,49.95,15.0,0.75,Mbps,Copper,EarthLink Internet 15M,60.0,69.95,Slow (<25 Mbps),,0.4914317302377003,less white,43088.0,15289.0,Low,5333.718595483588,2.0,0.7549668874172185,CenturyLink
"6453 Little Pine Way Las Vegas, NV 89108",las vegas,NV,36.2005961,-115.2345408,320030034192,1650715327,EarthLink,49.95,15.0,0.75,Mbps,Copper,EarthLink Internet 15M,80.0,69.95,Slow (<25 Mbps),,0.4914317302377003,less white,43088.0,15289.0,Low,5333.718595483588,2.0,0.7549668874172185,CenturyLink
"2201 Tall Pine Dr Las Vegas, NV 89108",las vegas,NV,36.2007783,-115.2332818,320030034192,1650715267,EarthLink,49.95,15.0,0.75,Mbps,Copper,EarthLink Internet 15M,80.0,69.95,Slow (<25 Mbps),,0.4914317302377003,less white,43088.0,15289.0,Low,5333.718595483588,2.0,0.7549668874172185,CenturyLink
"2334 Jack Pine Way Las Vegas, NV 89108",las vegas,NV,36.2025964,-115.2353707,320030034192,1650715314,EarthLink,49.95,15.0,0.75,Mbps,Copper,EarthLink Internet 15M,40.0,69.95,Slow (<25 Mbps),,0.4914317302377003,less white,43088.0,15289.0,Low,5333.718595483588,2.0,0.7549668874172185,CenturyLink
"6536 Pinon Pine Way Las Vegas, NV 89108",las vegas,NV,36.2027457,-115.2369894,320030034192,1650715365,EarthLink,49.95,15.0,0.75,Mbps,Copper,EarthLink Internet 15M,60.0,69.95,Slow (<25 Mbps),,0.4914317302377003,less white,43088.0,15289.0,Low,5333.718595483588,2.0,0.7549668874172185,CenturyLink
"6437 Addely Dr Las Vegas, NV 89108",las vegas,NV,36.2024447,-115.2342586,320030034192,1650715273,EarthLink,49.95,15.0,0.75,Mbps,Copper,EarthLink Internet 15M,80.0,69.95,Slow (<25 Mbps),,0.4914317302377003,less white,43088.0,15289.0,Low,5333.718595483588,2.0,0.7549668874172185,CenturyLink
"2200 James Bilbray Dr Las Vegas, NV 89108",las vegas,NV,36.2005564,-115.2364344,320030034192,1650715237,EarthLink,49.95,15.0,0.75,Mbps,Copper,EarthLink Internet 15M,40.0,69.95,Slow (<25 Mbps),,0.4914317302377003,less white,43088.0,15289.0,Low,5333.718595483588,2.0,0.7549668874172185,CenturyLink
"6465 Melody Rose Ave Las Vegas, NV 89108",las vegas,NV,36.1997855,-115.2349298,320030034192,1650715300,EarthLink,49.95,15.0,0.75,Mbps,Copper,EarthLink Internet 15M,80.0,69.95,Slow (<25 Mbps),,0.4914317302377003,less white,43088.0,15289.0,Low,5333.718595483588,2.0,0.7549668874172185,CenturyLink
"6445 Melody Rose Ave Las Vegas, NV 89108",las vegas,NV,36.1997593,-115.2344005,320030034192,1650715238,EarthLink,49.95,15.0,0.75,Mbps,Copper,EarthLink Internet 15M,80.0,69.95,Slow (<25 Mbps),,0.4914317302377003,less white,43088.0,15289.0,Low,5333.718595483588,2.0,0.7549668874172185,CenturyLink
"6461 Little Pine Way Las Vegas, NV 89108",las vegas,NV,36.2005935,-115.2347023,320030034192,1650715231,EarthLink,49.95,15.0,0.75,Mbps,Copper,EarthLink Internet 15M,80.0,69.95,Slow (<25 Mbps),,0.4914317302377003,less white,43088.0,15289.0,Low,5333.718595483588,2.0,0.7549668874172185,CenturyLink
"2200 Tall Pine Dr Las Vegas, NV 89108",las vegas,NV,36.2008197,-115.2335946,320030034192,1650715364,EarthLink,49.95,15.0,0.75,Mbps,Copper,EarthLink Internet 15M,80.0,69.95,Slow (<25 Mbps),,0.4914317302377003,less white,43088.0,15289.0,Low,5333.718595483588,2.0,0.7549668874172185,CenturyLink
"2221 Silver Pine Dr Las Vegas, NV 89108",las vegas,NV,36.201094,-115.2343372,320030034192,1650715226,EarthLink,49.95,15.0,0.75,Mbps,Copper,EarthLink Internet 15M,80.0,69.95,Slow (<25 Mbps),,0.4914317302377003,less white,43088.0,15289.0,Low,5333.718595483588,2.0,0.7549668874172185,CenturyLink
"6437 Blue Blossom Ave Las Vegas, NV 89108",las vegas,NV,36.2002687,-115.2342447,320030034192,1650715279,EarthLink,49.95,15.0,0.75,Mbps,Copper,EarthLink Internet 15M,80.0,69.95,Slow (<25 Mbps),,0.4914317302377003,less white,43088.0,15289.0,Low,5333.718595483588,2.0,0.7549668874172185,CenturyLink
"10409 Rocky Waters Ave Las Vegas, NV 89129",las vegas,NV,36.2211042,-115.322925,320030032391,1651604480,EarthLink,49.95,10.0,1.0,Mbps,Fiber Based,EarthLink Internet 10M,1000.0,99.95,Slow (<25 Mbps),,0.4834488067744418,less white,63345.0,-4968.0,Middle-Lower,3898.723235670167,2.0,0.931098696461825,CenturyLink
"10368 Turning Leaf Ave Las Vegas, NV 89129",las vegas,NV,36.2196834,-115.3222744,320030032391,1652911435,EarthLink,49.95,10.0,1.0,Mbps,Fiber Based,EarthLink Internet 10M,1000.0,99.95,Slow (<25 Mbps),,0.4834488067744418,less white,63345.0,-4968.0,Middle-Lower,3898.723235670167,2.0,0.931098696461825,CenturyLink
"10353 Sloping Hill Ave Las Vegas, NV 89129",las vegas,NV,36.2185976,-115.3216503,320030032391,1651842216,EarthLink,49.95,10.0,1.0,Mbps,Fiber Based,EarthLink Internet 10M,1000.0,99.95,Slow (<25 Mbps),,0.4834488067744418,less white,63345.0,-4968.0,Middle-Lower,3898.723235670167,2.0,0.931098696461825,CenturyLink
"10360 Timber Canyon Ave Las Vegas, NV 89129",las vegas,NV,36.2205359,-115.321965,320030032391,1653408216,EarthLink,49.95,10.0,1.0,Mbps,Fiber Based,EarthLink Internet 10M,1000.0,99.95,Slow (<25 Mbps),,0.4834488067744418,less white,63345.0,-4968.0,Middle-Lower,3898.723235670167,2.0,0.931098696461825,CenturyLink
"3236 Tree Bridge St Las Vegas, NV 89129",las vegas,NV,36.2200088,-115.3216529,320030032391,1651748609,EarthLink,49.95,10.0,1.0,Mbps,Fiber Based,EarthLink Internet 10M,1000.0,99.95,Slow (<25 Mbps),,0.4834488067744418,less white,63345.0,-4968.0,Middle-Lower,3898.723235670167,2.0,0.931098696461825,CenturyLink
"3504 Mountain Park St Las Vegas, NV 89129",las vegas,NV,36.2236349,-115.321733,320030032391,1653343346,EarthLink,49.95,10.0,1.0,Mbps,Fiber Based,EarthLink Internet 10M,1000.0,99.95,Slow (<25 Mbps),,0.4834488067744418,less white,63345.0,-4968.0,Middle-Lower,3898.723235670167,2.0,0.931098696461825,CenturyLink
"10452 Tuscany Rose Ct Las Vegas, NV 89129",las vegas,NV,36.2216225,-115.3243329,320030032391,1651993366,EarthLink,49.95,6.0,0.768,Mbps,Copper,EarthLink Internet 6M,6.0,49.95,Slow (<25 Mbps),,0.4834488067744418,less white,63345.0,-4968.0,Middle-Lower,3898.723235670167,2.0,0.931098696461825,CenturyLink
"10353 Rocky Waters Ave Las Vegas, NV 89129",las vegas,NV,36.221118,-115.3216312,320030032391,1652551386,EarthLink,49.95,10.0,1.0,Mbps,Fiber Based,EarthLink Internet 10M,1000.0,99.95,Slow (<25 Mbps),,0.4834488067744418,less white,63345.0,-4968.0,Middle-Lower,3898.723235670167,2.0,0.931098696461825,CenturyLink
"10417 Bent Willow Ave Las Vegas, NV 89129",las vegas,NV,36.2198453,-115.3232373,320030032391,1652785472,EarthLink,49.95,10.0,1.0,Mbps,Fiber Based,EarthLink Internet 10M,1000.0,99.95,Slow (<25 Mbps),,0.4834488067744418,less white,63345.0,-4968.0,Middle-Lower,3898.723235670167,2.0,0.931098696461825,CenturyLink
"10356 Rocky Waters Ave Las Vegas, NV 89129",las vegas,NV,36.2213729,-115.3217943,320030032391,1652306739,EarthLink,49.95,10.0,1.0,Mbps,Fiber Based,EarthLink Internet 10M,1000.0,99.95,Slow (<25 Mbps),,0.4834488067744418,less white,63345.0,-4968.0,Middle-Lower,3898.723235670167,2.0,0.931098696461825,CenturyLink
"10412 Nutt Creek Ave Las Vegas, NV 89129",las vegas,NV,36.2209496,-115.3230766,320030032391,1651662070,EarthLink,49.95,10.0,1.0,Mbps,Fiber Based,EarthLink Internet 10M,1000.0,99.95,Slow (<25 Mbps),,0.4834488067744418,less white,63345.0,-4968.0,Middle-Lower,3898.723235670167,2.0,0.931098696461825,CenturyLink
"10462 Tuscany Rose Ct Las Vegas, NV 89129",las vegas,NV,36.2216226,-115.3245763,320030032391,1651658527,EarthLink,49.95,6.0,0.768,Mbps,Copper,EarthLink Internet 6M,6.0,49.95,Slow (<25 Mbps),,0.4834488067744418,less white,63345.0,-4968.0,Middle-Lower,3898.723235670167,2.0,0.931098696461825,CenturyLink
"10489 Tuscany Rose Ct Las Vegas, NV 89129",las vegas,NV,36.2213004,-115.3252232,320030032391,1652454104,EarthLink,49.95,6.0,0.768,Mbps,Copper,EarthLink Internet 6M,6.0,49.95,Slow (<25 Mbps),,0.4834488067744418,less white,63345.0,-4968.0,Middle-Lower,3898.723235670167,2.0,0.931098696461825,CenturyLink
"10413 Sloping Hill Ave Las Vegas, NV 89129",las vegas,NV,36.218598,-115.3230786,320030032391,1652853688,EarthLink,49.95,10.0,1.0,Mbps,Fiber Based,EarthLink Internet 10M,1000.0,99.95,Slow (<25 Mbps),,0.4834488067744418,less white,63345.0,-4968.0,Middle-Lower,3898.723235670167,2.0,0.931098696461825,CenturyLink
"3429 Mountain Park St Las Vegas, NV 89129",las vegas,NV,36.2229356,-115.322257,320030032391,1651687345,EarthLink,49.95,10.0,1.0,Mbps,Fiber Based,EarthLink Internet 10M,1000.0,99.95,Slow (<25 Mbps),,0.4834488067744418,less white,63345.0,-4968.0,Middle-Lower,3898.723235670167,2.0,0.931098696461825,CenturyLink
"10413 Santa Cresta Ave Las Vegas, NV 89129",las vegas,NV,36.2221857,-115.3234201,320030032391,1652731284,EarthLink,49.95,10.0,1.0,Mbps,Fiber Based,EarthLink Internet 10M,1000.0,99.95,Slow (<25 Mbps),,0.4834488067744418,less white,63345.0,-4968.0,Middle-Lower,3898.723235670167,2.0,0.931098696461825,CenturyLink
"10365 Bent Willow Ave Las Vegas, NV 89129",las vegas,NV,36.2198408,-115.3221169,320030032391,1652407297,EarthLink,49.95,10.0,1.0,Mbps,Fiber Based,EarthLink Internet 10M,1000.0,99.95,Slow (<25 Mbps),,0.4834488067744418,less white,63345.0,-4968.0,Middle-Lower,3898.723235670167,2.0,0.931098696461825,CenturyLink
"10373 Rocky Waters Ave Las Vegas, NV 89129",las vegas,NV,36.2211063,-115.3224673,320030032391,1651838531,EarthLink,49.95,10.0,1.0,Mbps,Fiber Based,EarthLink Internet 10M,1000.0,99.95,Slow (<25 Mbps),,0.4834488067744418,less white,63345.0,-4968.0,Middle-Lower,3898.723235670167,2.0,0.931098696461825,CenturyLink
"10412 Bent Willow Ave Las Vegas, NV 89129",las vegas,NV,36.2201107,-115.3230972,320030032391,1653047011,EarthLink,49.95,10.0,1.0,Mbps,Fiber Based,EarthLink Internet 10M,1000.0,99.95,Slow (<25 Mbps),,0.4834488067744418,less white,63345.0,-4968.0,Middle-Lower,3898.723235670167,2.0,0.931098696461825,CenturyLink
"3516 Mountain Park St Las Vegas, NV 89129",las vegas,NV,36.2240054,-115.3217321,320030032391,1652090719,EarthLink,49.95,10.0,1.0,Mbps,Fiber Based,EarthLink Internet 10M,1000.0,99.95,Slow (<25 Mbps),,0.4834488067744418,less white,63345.0,-4968.0,Middle-Lower,3898.723235670167,2.0,0.931098696461825,CenturyLink
"10472 Tuscany Rose Ct Las Vegas, NV 89129",las vegas,NV,36.2218466,-115.3248855,320030032391,1651723396,EarthLink,49.95,6.0,0.768,Mbps,Copper,EarthLink Internet 6M,6.0,49.95,Slow (<25 Mbps),,0.4834488067744418,less white,63345.0,-4968.0,Middle-Lower,3898.723235670167,2.0,0.931098696461825,CenturyLink
"3428 Sun Rhythm St Las Vegas, NV 89129",las vegas,NV,36.2229366,-115.3226752,320030032391,1652684505,EarthLink,49.95,10.0,1.0,Mbps,Fiber Based,EarthLink Internet 10M,1000.0,99.95,Slow (<25 Mbps),,0.4834488067744418,less white,63345.0,-4968.0,Middle-Lower,3898.723235670167,2.0,0.931098696461825,CenturyLink
"10360 Natural Springs Ave Las Vegas, NV 89129",las vegas,NV,36.2217899,-115.321962,320030032391,1652586442,EarthLink,49.95,10.0,1.0,Mbps,Fiber Based,EarthLink Internet 10M,1000.0,99.95,Slow (<25 Mbps),,0.4834488067744418,less white,63345.0,-4968.0,Middle-Lower,3898.723235670167,2.0,0.931098696461825,CenturyLink
"10404 Timber Canyon Ave Las Vegas, NV 89129",las vegas,NV,36.2205334,-115.3227542,320030032391,1652313699,EarthLink,49.95,10.0,1.0,Mbps,Fiber Based,EarthLink Internet 10M,1000.0,99.95,Slow (<25 Mbps),,0.4834488067744418,less white,63345.0,-4968.0,Middle-Lower,3898.723235670167,2.0,0.931098696461825,CenturyLink
"10372 Timber Canyon Ave Las Vegas, NV 89129",las vegas,NV,36.2205349,-115.3224389,320030032391,1651777631,EarthLink,49.95,10.0,1.0,Mbps,Fiber Based,EarthLink Internet 10M,1000.0,99.95,Slow (<25 Mbps),,0.4834488067744418,less white,63345.0,-4968.0,Middle-Lower,3898.723235670167,2.0,0.931098696461825,CenturyLink
"10364 Turning Leaf Ave Las Vegas, NV 89129",las vegas,NV,36.2196634,-115.3221151,320030032391,1652909555,EarthLink,49.95,10.0,1.0,Mbps,Fiber Based,EarthLink Internet 10M,1000.0,99.95,Slow (<25 Mbps),,0.4834488067744418,less white,63345.0,-4968.0,Middle-Lower,3898.723235670167,2.0,0.931098696461825,CenturyLink
"10400 Timber Canyon Ave Las Vegas, NV 89129",las vegas,NV,36.2205342,-115.3225966,320030032391,1651658514,EarthLink,49.95,10.0,1.0,Mbps,Fiber Based,EarthLink Internet 10M,1000.0,99.95,Slow (<25 Mbps),,0.4834488067744418,less white,63345.0,-4968.0,Middle-Lower,3898.723235670167,2.0,0.931098696461825,CenturyLink
"10364 Pink Cloud Ct Las Vegas, NV 89129",las vegas,NV,36.2252098,-115.3223308,320030032391,1651745098,EarthLink,49.95,10.0,1.0,Mbps,Fiber Based,EarthLink Internet 10M,1000.0,99.95,Slow (<25 Mbps),,0.4834488067744418,less white,63345.0,-4968.0,Middle-Lower,3898.723235670167,2.0,0.931098696461825,CenturyLink
"10369 Santa Cresta Ave Las Vegas, NV 89129",las vegas,NV,36.2222005,-115.3224984,320030032391,1651925102,EarthLink,49.95,10.0,1.0,Mbps,Fiber Based,EarthLink Internet 10M,1000.0,99.95,Slow (<25 Mbps),,0.4834488067744418,less white,63345.0,-4968.0,Middle-Lower,3898.723235670167,2.0,0.931098696461825,CenturyLink
"10405 Sloping Hill Ave Las Vegas, NV 89129",las vegas,NV,36.2185959,-115.3227633,320030032391,1652194901,EarthLink,49.95,10.0,1.0,Mbps,Fiber Based,EarthLink Internet 10M,1000.0,99.95,Slow (<25 Mbps),,0.4834488067744418,less white,63345.0,-4968.0,Middle-Lower,3898.723235670167,2.0,0.931098696461825,CenturyLink
"7708 Silver Mallard Ave Las Vegas, NV 89131",las vegas,NV,36.2964322,-115.2635099,320030033193,1651817146,EarthLink,49.95,10.0,1.0,Mbps,Copper,EarthLink Internet 10M,10.0,49.95,Slow (<25 Mbps),,0.4780652418447694,less white,87232.0,-28855.0,Middle-Upper,3106.024079547757,2.0,1.0,CenturyLink
"7709 Donald Nelson Ave Las Vegas, NV 89131",las vegas,NV,36.299749,-115.2632069,320030033193,1652864473,EarthLink,49.95,15.0,0.75,Mbps,Copper,EarthLink Internet 15M,40.0,69.95,Slow (<25 Mbps),,0.4780652418447694,less white,87232.0,-28855.0,Middle-Upper,3106.024079547757,2.0,1.0,CenturyLink
"7409 Red Swallow St Las Vegas, NV 89131",las vegas,NV,36.2959777,-115.2656208,320030033193,1653148995,EarthLink,49.95,15.0,0.75,Mbps,Copper,EarthLink Internet 15M,15.0,49.95,Slow (<25 Mbps),,0.4780652418447694,less white,87232.0,-28855.0,Middle-Upper,3106.024079547757,2.0,1.0,CenturyLink
"7900 White Grass Ave Las Vegas, NV 89131",las vegas,NV,36.2973864,-115.2670531,320030033193,1653001310,EarthLink,49.95,10.0,1.0,Mbps,Copper,EarthLink Internet 10M,10.0,49.95,Slow (<25 Mbps),,0.4780652418447694,less white,87232.0,-28855.0,Middle-Upper,3106.024079547757,2.0,1.0,CenturyLink
"7936 Thorne Pine Ave Las Vegas, NV 89131",las vegas,NV,36.2982129,-115.2687399,320030033193,1651755945,EarthLink,49.95,10.0,1.0,Mbps,Copper,EarthLink Internet 10M,10.0,49.95,Slow (<25 Mbps),,0.4780652418447694,less white,87232.0,-28855.0,Middle-Upper,3106.024079547757,2.0,1.0,CenturyLink
"7916 Thorne Pine Ave Las Vegas, NV 89131",las vegas,NV,36.2981154,-115.2676661,320030033193,1652101321,EarthLink,49.95,10.0,1.0,Mbps,Copper,EarthLink Internet 10M,10.0,49.95,Slow (<25 Mbps),,0.4780652418447694,less white,87232.0,-28855.0,Middle-Upper,3106.024079547757,2.0,1.0,CenturyLink
"7909 Lark Meadow Ave Las Vegas, NV 89131",las vegas,NV,36.2954477,-115.2666152,320030033193,1652054573,EarthLink,49.95,10.0,1.0,Mbps,Copper,EarthLink Internet 10M,10.0,49.95,Slow (<25 Mbps),,0.4780652418447694,less white,87232.0,-28855.0,Middle-Upper,3106.024079547757,2.0,1.0,CenturyLink
"7733 White Grass Ave Las Vegas, NV 89131",las vegas,NV,36.2968042,-115.2646864,320030033193,1652907871,EarthLink,49.95,10.0,1.0,Mbps,Copper,EarthLink Internet 10M,10.0,49.95,Slow (<25 Mbps),,0.4780652418447694,less white,87232.0,-28855.0,Middle-Upper,3106.024079547757,2.0,1.0,CenturyLink
"7905 Thorne Pine Ave Las Vegas, NV 89131",las vegas,NV,36.2976704,-115.2671837,320030033193,1651564890,EarthLink,49.95,10.0,1.0,Mbps,Copper,EarthLink Internet 10M,10.0,49.95,Slow (<25 Mbps),,0.4780652418447694,less white,87232.0,-28855.0,Middle-Upper,3106.024079547757,2.0,1.0,CenturyLink
"7921 Thorne Pine Ave Las Vegas, NV 89131",las vegas,NV,36.2977261,-115.2679955,320030033193,1651644332,EarthLink,49.95,10.0,1.0,Mbps,Copper,EarthLink Internet 10M,10.0,49.95,Slow (<25 Mbps),,0.4780652418447694,less white,87232.0,-28855.0,Middle-Upper,3106.024079547757,2.0,1.0,CenturyLink
"7409 Painted Ridge St Las Vegas, NV 89131",las vegas,NV,36.2966291,-115.2622674,320030033193,1652790968,EarthLink,49.95,10.0,1.0,Mbps,Copper,EarthLink Internet 10M,10.0,49.95,Slow (<25 Mbps),,0.4780652418447694,less white,87232.0,-28855.0,Middle-Upper,3106.024079547757,2.0,1.0,CenturyLink
"7740 White Grass Ave Las Vegas, NV 89131",las vegas,NV,36.2972436,-115.264989,320030033193,1652133822,EarthLink,49.95,10.0,1.0,Mbps,Copper,EarthLink Internet 10M,10.0,49.95,Slow (<25 Mbps),,0.4780652418447694,less white,87232.0,-28855.0,Middle-Upper,3106.024079547757,2.0,1.0,CenturyLink
"7705 White Grass Ave Las Vegas, NV 89131",las vegas,NV,36.2967072,-115.2632664,320030033193,1653217293,EarthLink,49.95,10.0,1.0,Mbps,Copper,EarthLink Internet 10M,10.0,49.95,Slow (<25 Mbps),,0.4780652418447694,less white,87232.0,-28855.0,Middle-Upper,3106.024079547757,2.0,1.0,CenturyLink
"7805 White Grass Ave Las Vegas, NV 89131",las vegas,NV,36.2968596,-115.2654979,320030033193,1653094880,EarthLink,49.95,10.0,1.0,Mbps,Copper,EarthLink Internet 10M,10.0,49.95,Slow (<25 Mbps),,0.4780652418447694,less white,87232.0,-28855.0,Middle-Upper,3106.024079547757,2.0,1.0,CenturyLink
"7437 Forest Ivy St Las Vegas, NV 89131",las vegas,NV,36.2970691,-115.2679919,320030033193,1652677406,EarthLink,49.95,10.0,1.0,Mbps,Copper,EarthLink Internet 10M,10.0,49.95,Slow (<25 Mbps),,0.4780652418447694,less white,87232.0,-28855.0,Middle-Upper,3106.024079547757,2.0,1.0,CenturyLink
"7641 Silver Mallard Ave Las Vegas, NV 89131",las vegas,NV,36.2959496,-115.2627315,320030033193,1651993415,EarthLink,49.95,10.0,1.0,Mbps,Copper,EarthLink Internet 10M,10.0,49.95,Slow (<25 Mbps),,0.4780652418447694,less white,87232.0,-28855.0,Middle-Upper,3106.024079547757,2.0,1.0,CenturyLink
"7625 Silver Mallard Ave Las Vegas, NV 89131",las vegas,NV,36.2959025,-115.2619191,320030033193,1652914931,EarthLink,49.95,10.0,1.0,Mbps,Copper,EarthLink Internet 10M,10.0,49.95,Slow (<25 Mbps),,0.4780652418447694,less white,87232.0,-28855.0,Middle-Upper,3106.024079547757,2.0,1.0,CenturyLink
"7808 Thorne Pine Ave Las Vegas, NV 89131",las vegas,NV,36.2979639,-115.2654333,320030033193,1651640567,EarthLink,49.95,10.0,1.0,Mbps,Copper,EarthLink Internet 10M,10.0,49.95,Slow (<25 Mbps),,0.4780652418447694,less white,87232.0,-28855.0,Middle-Upper,3106.024079547757,2.0,1.0,CenturyLink
"7712 Twisted Pine Ave Las Vegas, NV 89131",las vegas,NV,36.2978205,-115.2631202,320030033193,1651784527,EarthLink,49.95,15.0,0.75,Mbps,Copper,EarthLink Internet 15M,15.0,49.95,Slow (<25 Mbps),,0.4780652418447694,less white,87232.0,-28855.0,Middle-Upper,3106.024079547757,2.0,1.0,CenturyLink
"7405 Pinto Bluff St Las Vegas, NV 89131",las vegas,NV,36.2956111,-115.2682492,320030033193,1652925749,EarthLink,49.95,10.0,1.0,Mbps,Copper,EarthLink Internet 10M,10.0,49.95,Slow (<25 Mbps),,0.4780652418447694,less white,87232.0,-28855.0,Middle-Upper,3106.024079547757,2.0,1.0,CenturyLink
"7605 Flourish Springs St Las Vegas, NV 89131",las vegas,NV,36.2986524,-115.2645553,320030033193,1650949327,EarthLink,49.95,15.0,0.75,Mbps,Copper,EarthLink Internet 15M,40.0,69.95,Slow (<25 Mbps),,0.4780652418447694,less white,87232.0,-28855.0,Middle-Upper,3106.024079547757,2.0,1.0,CenturyLink
"7512 Shady Rock St Las Vegas, NV 89131",las vegas,NV,36.2973778,-115.260543,320030033193,1651564875,EarthLink,49.95,10.0,1.0,Mbps,Copper,EarthLink Internet 10M,10.0,49.95,Slow (<25 Mbps),,0.4780652418447694,less white,87232.0,-28855.0,Middle-Upper,3106.024079547757,2.0,1.0,CenturyLink
"7701 Twisted Pine Ave Las Vegas, NV 89131",las vegas,NV,36.2973447,-115.2624636,320030033193,1651691023,EarthLink,49.95,15.0,0.75,Mbps,Copper,EarthLink Internet 15M,15.0,49.95,Slow (<25 Mbps),,0.4780652418447694,less white,87232.0,-28855.0,Middle-Upper,3106.024079547757,2.0,1.0,CenturyLink
"7736 White Grass Ave Las Vegas, NV 89131",las vegas,NV,36.2972293,-115.2647826,320030033193,1653231718,EarthLink,49.95,10.0,1.0,Mbps,Copper,EarthLink Internet 10M,10.0,49.95,Slow (<25 Mbps),,0.4780652418447694,less white,87232.0,-28855.0,Middle-Upper,3106.024079547757,2.0,1.0,CenturyLink
"7420 Pinto Bluff St Las Vegas, NV 89131",las vegas,NV,36.2964228,-115.2679929,320030033193,1651658494,EarthLink,49.95,10.0,1.0,Mbps,Copper,EarthLink Internet 10M,10.0,49.95,Slow (<25 Mbps),,0.4780652418447694,less white,87232.0,-28855.0,Middle-Upper,3106.024079547757,2.0,1.0,CenturyLink
"7609 Silver Mallard Ave Las Vegas, NV 89131",las vegas,NV,36.2958555,-115.2611068,320030033193,1652533358,EarthLink,49.95,10.0,1.0,Mbps,Copper,EarthLink Internet 10M,10.0,49.95,Slow (<25 Mbps),,0.4780652418447694,less white,87232.0,-28855.0,Middle-Upper,3106.024079547757,2.0,1.0,CenturyLink
"7800 Silver Mallard Ave Las Vegas, NV 89131",las vegas,NV,36.2965317,-115.2649768,320030033193,1652749310,EarthLink,49.95,15.0,0.75,Mbps,Copper,EarthLink Internet 15M,15.0,49.95,Slow (<25 Mbps),,0.4780652418447694,less white,87232.0,-28855.0,Middle-Upper,3106.024079547757,2.0,1.0,CenturyLink
"7405 Red Swallow St Las Vegas, NV 89131",las vegas,NV,36.2957738,-115.265581,320030033193,1652409128,EarthLink,49.95,15.0,0.75,Mbps,Copper,EarthLink Internet 15M,15.0,49.95,Slow (<25 Mbps),,0.4780652418447694,less white,87232.0,-28855.0,Middle-Upper,3106.024079547757,2.0,1.0,CenturyLink
"7725 Curiosity Ave Las Vegas, NV 89131",las vegas,NV,36.2983483,-115.2634333,320030033193,1651654947,EarthLink,49.95,15.0,0.75,Mbps,Copper,EarthLink Internet 15M,60.0,69.95,Slow (<25 Mbps),,0.4780652418447694,less white,87232.0,-28855.0,Middle-Upper,3106.024079547757,2.0,1.0,CenturyLink
"7401 Pinto Bluff St Las Vegas, NV 89131",las vegas,NV,36.2953623,-115.268183,320030033193,1651770168,EarthLink,49.95,10.0,1.0,Mbps,Copper,EarthLink Internet 10M,10.0,49.95,Slow (<25 Mbps),,0.4780652418447694,less white,87232.0,-28855.0,Middle-Upper,3106.024079547757,2.0,1.0,CenturyLink
"3109 Highland Falls Dr Las Vegas, NV 89134",las vegas,NV,36.2166761,-115.3192678,320030032101,1650665095,EarthLink,49.95,15.0,0.75,Mbps,Copper,EarthLink Internet 15M,100.0,79.95,Slow (<25 Mbps),,0.1396226415094339,most white,64000.0,-5623.0,Middle-Lower,1019.7072862895544,2.0,0.734375,CenturyLink
"2717 Valley Downs Dr Las Vegas, NV 89134",las vegas,NV,36.2091074,-115.3235657,320030032101,1650665058,EarthLink,49.95,15.0,0.75,Mbps,Copper,EarthLink Internet 15M,80.0,69.95,Slow (<25 Mbps),,0.1396226415094339,most white,64000.0,-5623.0,Middle-Lower,1019.7072862895544,2.0,0.734375,CenturyLink
"3112 Childress Dr Las Vegas, NV 89134",las vegas,NV,36.2170645,-115.3279286,320030032101,1650665065,EarthLink,49.95,15.0,0.75,Mbps,Copper,EarthLink Internet 15M,100.0,79.95,Slow (<25 Mbps),,0.1396226415094339,most white,64000.0,-5623.0,Middle-Lower,1019.7072862895544,2.0,0.734375,CenturyLink
"2705 Herons Creek Dr Las Vegas, NV 89134",las vegas,NV,36.2087711,-115.3223553,320030032101,1650665065,EarthLink,49.95,15.0,0.75,Mbps,Copper,EarthLink Internet 15M,80.0,69.95,Slow (<25 Mbps),,0.1396226415094339,most white,64000.0,-5623.0,Middle-Lower,1019.7072862895544,2.0,0.734375,CenturyLink
"2712 Herons Creek Dr Las Vegas, NV 89134",las vegas,NV,36.2091069,-115.3219841,320030032101,1650665071,EarthLink,49.95,15.0,0.75,Mbps,Copper,EarthLink Internet 15M,80.0,69.95,Slow (<25 Mbps),,0.1396226415094339,most white,64000.0,-5623.0,Middle-Lower,1019.7072862895544,2.0,0.734375,CenturyLink
"2816 Childress Dr Las Vegas, NV 89134",las vegas,NV,36.211547,-115.324588,320030032101,1650665059,EarthLink,49.95,15.0,0.75,Mbps,Copper,EarthLink Internet 15M,40.0,69.95,Slow (<25 Mbps),,0.1396226415094339,most white,64000.0,-5623.0,Middle-Lower,1019.7072862895544,2.0,0.734375,CenturyLink
"3104 Childress Dr Las Vegas, NV 89134",las vegas,NV,36.2168098,-115.3276109,320030032101,1650665074,EarthLink,49.95,15.0,0.75,Mbps,Copper,EarthLink Internet 15M,100.0,79.95,Slow (<25 Mbps),,0.1396226415094339,most white,64000.0,-5623.0,Middle-Lower,1019.7072862895544,2.0,0.734375,CenturyLink
"2912 Abercorn Dr Las Vegas, NV 89134",las vegas,NV,36.2141432,-115.3228972,320030032101,1650665106,EarthLink,49.95,15.0,0.75,Mbps,Copper,EarthLink Internet 15M,100.0,79.95,Slow (<25 Mbps),,0.1396226415094339,most white,64000.0,-5623.0,Middle-Lower,1019.7072862895544,2.0,0.734375,CenturyLink
"10453 Junction Hill Dr Las Vegas, NV 89134",las vegas,NV,36.2131572,-115.3246737,320030032101,1650665103,EarthLink,49.95,15.0,0.75,Mbps,Copper,EarthLink Internet 15M,100.0,79.95,Slow (<25 Mbps),,0.1396226415094339,most white,64000.0,-5623.0,Middle-Lower,1019.7072862895544,2.0,0.734375,CenturyLink
"3116 Faiss Dr Las Vegas, NV 89134",las vegas,NV,36.2166208,-115.3267092,320030032101,1650665110,EarthLink,49.95,15.0,0.75,Mbps,Copper,EarthLink Internet 15M,100.0,79.95,Slow (<25 Mbps),,0.1396226415094339,most white,64000.0,-5623.0,Middle-Lower,1019.7072862895544,2.0,0.734375,CenturyLink
"10428 Villa Ridge Dr Las Vegas, NV 89134",las vegas,NV,36.2179902,-115.3247314,320030032101,1650665052,EarthLink,49.95,3.0,0.512,Mbps,Copper,EarthLink Internet 3M,30.0,59.95,Slow (<25 Mbps),,0.1396226415094339,most white,64000.0,-5623.0,Middle-Lower,1019.7072862895544,2.0,0.734375,CenturyLink
"10316 Back Plains Dr Las Vegas, NV 89134",las vegas,NV,36.216121,-115.3222104,320030032101,1650665073,EarthLink,49.95,15.0,0.75,Mbps,Copper,EarthLink Internet 15M,100.0,79.95,Slow (<25 Mbps),,0.1396226415094339,most white,64000.0,-5623.0,Middle-Lower,1019.7072862895544,2.0,0.734375,CenturyLink
"10420 Leafgold Dr Las Vegas, NV 89134",las vegas,NV,36.2099402,-115.3236033,320030032101,1650665100,EarthLink,49.95,15.0,0.75,Mbps,Copper,EarthLink Internet 15M,80.0,69.95,Slow (<25 Mbps),,0.1396226415094339,most white,64000.0,-5623.0,Middle-Lower,1019.7072862895544,2.0,0.734375,CenturyLink
"10400 Skipton Dr Las Vegas, NV 89134",las vegas,NV,36.2167979,-115.3241412,320030032101,1650665068,EarthLink,49.95,15.0,0.75,Mbps,Copper,EarthLink Internet 15M,100.0,79.95,Slow (<25 Mbps),,0.1396226415094339,most white,64000.0,-5623.0,Middle-Lower,1019.7072862895544,2.0,0.734375,CenturyLink
"3104 Faiss Dr Las Vegas, NV 89134",las vegas,NV,36.216383,-115.3270939,320030032101,1650665062,EarthLink,49.95,15.0,0.75,Mbps,Copper,EarthLink Internet 15M,100.0,79.95,Slow (<25 Mbps),,0.1396226415094339,most white,64000.0,-5623.0,Middle-Lower,1019.7072862895544,2.0,0.734375,CenturyLink
"3013 Treesdale Dr Las Vegas, NV 89134",las vegas,NV,36.2141829,-115.3225501,320030032101,1650665098,EarthLink,49.95,15.0,0.75,Mbps,Copper,EarthLink Internet 15M,100.0,79.95,Slow (<25 Mbps),,0.1396226415094339,most white,64000.0,-5623.0,Middle-Lower,1019.7072862895544,2.0,0.734375,CenturyLink
"10404 Skipton Dr Las Vegas, NV 89134",las vegas,NV,36.2169476,-115.3243018,320030032101,1650665083,EarthLink,49.95,15.0,0.75,Mbps,Copper,EarthLink Internet 15M,100.0,79.95,Slow (<25 Mbps),,0.1396226415094339,most white,64000.0,-5623.0,Middle-Lower,1019.7072862895544,2.0,0.734375,CenturyLink
"3156 Faiss Dr Las Vegas, NV 89134",las vegas,NV,36.2174332,-115.3253015,320030032101,1650665082,EarthLink,49.95,15.0,0.75,Mbps,Copper,EarthLink Internet 15M,100.0,79.95,Slow (<25 Mbps),,0.1396226415094339,most white,64000.0,-5623.0,Middle-Lower,1019.7072862895544,2.0,0.734375,CenturyLink
"10325 Villa Ridge Dr Las Vegas, NV 89134",las vegas,NV,36.2174652,-115.3217066,320030032101,1650665089,EarthLink,49.95,3.0,0.512,Mbps,Copper,EarthLink Internet 3M,60.0,69.95,Slow (<25 Mbps),,0.1396226415094339,most white,64000.0,-5623.0,Middle-Lower,1019.7072862895544,2.0,0.734375,CenturyLink
"3021 Treesdale Dr Las Vegas, NV 89134",las vegas,NV,36.2145195,-115.3227625,320030032101,1650665089,EarthLink,49.95,15.0,0.75,Mbps,Copper,EarthLink Internet 15M,100.0,79.95,Slow (<25 Mbps),,0.1396226415094339,most white,64000.0,-5623.0,Middle-Lower,1019.7072862895544,2.0,0.734375,CenturyLink
"2925 Laverton Dr Las Vegas, NV 89134",las vegas,NV,36.2142394,-115.3245258,320030032101,1650665077,EarthLink,49.95,15.0,0.75,Mbps,Copper,EarthLink Internet 15M,100.0,79.95,Slow (<25 Mbps),,0.1396226415094339,most white,64000.0,-5623.0,Middle-Lower,1019.7072862895544,2.0,0.734375,CenturyLink
"3021 Becks Hill Dr Las Vegas, NV 89134",las vegas,NV,36.214992,-115.3221122,320030032101,1650665074,EarthLink,49.95,15.0,0.75,Mbps,Copper,EarthLink Internet 15M,100.0,79.95,Slow (<25 Mbps),,0.1396226415094339,most white,64000.0,-5623.0,Middle-Lower,1019.7072862895544,2.0,0.734375,CenturyLink
"3136 Faiss Dr Las Vegas, NV 89134",las vegas,NV,36.2170284,-115.3260121,320030032101,1650665081,EarthLink,49.95,15.0,0.75,Mbps,Copper,EarthLink Internet 15M,100.0,79.95,Slow (<25 Mbps),,0.1396226415094339,most white,64000.0,-5623.0,Middle-Lower,1019.7072862895544,2.0,0.734375,CenturyLink
"10321 Villa Ridge Dr Las Vegas, NV 89134",las vegas,NV,36.2174801,-115.3214523,320030032101,1650665088,EarthLink,49.95,3.0,0.512,Mbps,Copper,EarthLink Internet 3M,60.0,69.95,Slow (<25 Mbps),,0.1396226415094339,most white,64000.0,-5623.0,Middle-Lower,1019.7072862895544,2.0,0.734375,CenturyLink
"2917 Laverton Dr Las Vegas, NV 89134",las vegas,NV,36.2139847,-115.3243593,320030032101,1650665107,EarthLink,49.95,15.0,0.75,Mbps,Copper,EarthLink Internet 15M,100.0,79.95,Slow (<25 Mbps),,0.1396226415094339,most white,64000.0,-5623.0,Middle-Lower,1019.7072862895544,2.0,0.734375,CenturyLink
"10412 Leafgold Dr Las Vegas, NV 89134",las vegas,NV,36.2099944,-115.3232574,320030032101,1650665062,EarthLink,49.95,15.0,0.75,Mbps,Copper,EarthLink Internet 15M,80.0,69.95,Slow (<25 Mbps),,0.1396226415094339,most white,64000.0,-5623.0,Middle-Lower,1019.7072862895544,2.0,0.734375,CenturyLink
"10304 Villa Ridge Dr Las Vegas, NV 89134",las vegas,NV,36.2179416,-115.3204285,320030032101,1650665094,EarthLink,49.95,3.0,0.512,Mbps,Copper,EarthLink Internet 3M,60.0,69.95,Slow (<25 Mbps),,0.1396226415094339,most white,64000.0,-5623.0,Middle-Lower,1019.7072862895544,2.0,0.734375,CenturyLink
"3040 Crib Point Dr Las Vegas, NV 89134",las vegas,NV,36.2161292,-115.320746,320030032101,1650665095,EarthLink,49.95,15.0,0.75,Mbps,Copper,EarthLink Internet 15M,100.0,79.95,Slow (<25 Mbps),,0.1396226415094339,most white,64000.0,-5623.0,Middle-Lower,1019.7072862895544,2.0,0.734375,CenturyLink
"3001 Becks Hill Dr Las Vegas, NV 89134",las vegas,NV,36.2141231,-115.3216454,320030032101,1650665054,EarthLink,49.95,15.0,0.75,Mbps,Copper,EarthLink Internet 15M,100.0,79.95,Slow (<25 Mbps),,0.1396226415094339,most white,64000.0,-5623.0,Middle-Lower,1019.7072862895544,2.0,0.734375,CenturyLink
"10504 Linden Wood Ct Las Vegas, NV 89134",las vegas,NV,36.2177327,-115.3260736,320030032101,1650665052,EarthLink,49.95,15.0,0.75,Mbps,Copper,EarthLink Internet 15M,100.0,79.95,Slow (<25 Mbps),,0.1396226415094339,most white,64000.0,-5623.0,Middle-Lower,1019.7072862895544,2.0,0.734375,CenturyLink
"10313 Villa Ridge Dr Las Vegas, NV 89134",las vegas,NV,36.2174818,-115.3209433,320030032101,1650665080,EarthLink,49.95,3.0,0.512,Mbps,Copper,EarthLink Internet 3M,60.0,69.95,Slow (<25 Mbps),,0.1396226415094339,most white,64000.0,-5623.0,Middle-Lower,1019.7072862895544,2.0,0.734375,CenturyLink
"10608 Spring Garden Ct Las Vegas, NV 89134",las vegas,NV,36.2174363,-115.327022,320030032101,1650665069,EarthLink,49.95,15.0,0.75,Mbps,Copper,EarthLink Internet 15M,100.0,79.95,Slow (<25 Mbps),,0.1396226415094339,most white,64000.0,-5623.0,Middle-Lower,1019.7072862895544,2.0,0.734375,CenturyLink
"2716 Valley Downs Dr Las Vegas, NV 89134",las vegas,NV,36.2091947,-115.3230456,320030032101,1650665101,EarthLink,49.95,15.0,0.75,Mbps,Copper,EarthLink Internet 15M,80.0,69.95,Slow (<25 Mbps),,0.1396226415094339,most white,64000.0,-5623.0,Middle-Lower,1019.7072862895544,2.0,0.734375,CenturyLink
"2720 Childress Dr Las Vegas, NV 89134",las vegas,NV,36.2093816,-115.3241268,320030032101,1650665052,EarthLink,49.95,15.0,0.75,Mbps,Copper,EarthLink Internet 15M,80.0,69.95,Slow (<25 Mbps),,0.1396226415094339,most white,64000.0,-5623.0,Middle-Lower,1019.7072862895544,2.0,0.734375,CenturyLink
"3249 Mystic Ridge Ct Las Vegas, NV 89129",las vegas,NV,36.2197121,-115.3058925,320030032413,1651910891,EarthLink,49.95,3.0,0.512,Mbps,Copper,EarthLink Internet 3M,3.0,49.95,Slow (<25 Mbps),,0.5537190082644629,less white,95875.0,-37498.0,Upper Income,5633.999557661192,2.0,0.8875638841567292,CenturyLink
"3301 Salmon Creek Dr Las Vegas, NV 89129",las vegas,NV,36.2206676,-115.3016481,320030032413,1652270557,EarthLink,49.95,10.0,1.0,Mbps,Copper,EarthLink Internet 10M,10.0,49.95,Slow (<25 Mbps),,0.5537190082644629,less white,95875.0,-37498.0,Upper Income,5633.999557661192,2.0,0.8875638841567292,CenturyLink
"3328 Salmon Creek Dr Las Vegas, NV 89129",las vegas,NV,36.2215856,-115.3011002,320030032413,1652166083,EarthLink,49.95,10.0,1.0,Mbps,Copper,EarthLink Internet 10M,10.0,49.95,Slow (<25 Mbps),,0.5537190082644629,less white,95875.0,-37498.0,Upper Income,5633.999557661192,2.0,0.8875638841567292,CenturyLink
"3304 Salmon Creek Dr Las Vegas, NV 89129",las vegas,NV,36.2209012,-115.3010889,320030032413,1651928469,EarthLink,49.95,15.0,0.75,Mbps,Copper,EarthLink Internet 15M,100.0,79.95,Slow (<25 Mbps),,0.5537190082644629,less white,95875.0,-37498.0,Upper Income,5633.999557661192,2.0,0.8875638841567292,CenturyLink
"3316 Red Lodge Dr Las Vegas, NV 89129",las vegas,NV,36.2212545,-115.2976265,320030032413,1651971684,EarthLink,49.95,15.0,0.75,Mbps,Copper,EarthLink Internet 15M,15.0,49.95,Slow (<25 Mbps),,0.5537190082644629,less white,95875.0,-37498.0,Upper Income,5633.999557661192,2.0,0.8875638841567292,CenturyLink
"3337 Salmon Creek Dr Las Vegas, NV 89129",las vegas,NV,36.2217834,-115.3016566,320030032413,1653339659,EarthLink,49.95,10.0,1.0,Mbps,Copper,EarthLink Internet 10M,10.0,49.95,Slow (<25 Mbps),,0.5537190082644629,less white,95875.0,-37498.0,Upper Income,5633.999557661192,2.0,0.8875638841567292,CenturyLink
"3304 Red Lodge Dr Las Vegas, NV 89129",las vegas,NV,36.2209079,-115.297581,320030032413,1653174153,EarthLink,49.95,15.0,0.75,Mbps,Copper,EarthLink Internet 15M,15.0,49.95,Slow (<25 Mbps),,0.5537190082644629,less white,95875.0,-37498.0,Upper Income,5633.999557661192,2.0,0.8875638841567292,CenturyLink
"9316 Deer Lodge Ln Las Vegas, NV 89129",las vegas,NV,36.2210411,-115.2984036,320030032413,1651633269,EarthLink,49.95,10.0,1.0,Mbps,Copper,EarthLink Internet 10M,10.0,49.95,Slow (<25 Mbps),,0.5537190082644629,less white,95875.0,-37498.0,Upper Income,5633.999557661192,2.0,0.8875638841567292,CenturyLink
"3332 Big Sandy Cir Las Vegas, NV 89129",las vegas,NV,36.2217437,-115.2985807,320030032413,1652551306,EarthLink,49.95,15.0,0.75,Mbps,Copper,EarthLink Internet 15M,15.0,49.95,Slow (<25 Mbps),,0.5537190082644629,less white,95875.0,-37498.0,Upper Income,5633.999557661192,2.0,0.8875638841567292,CenturyLink
"3333 Twin Bridges Ct Las Vegas, NV 89129",las vegas,NV,36.2217022,-115.3007203,320030032413,1652570233,EarthLink,49.95,10.0,1.0,Mbps,Copper,EarthLink Internet 10M,10.0,49.95,Slow (<25 Mbps),,0.5537190082644629,less white,95875.0,-37498.0,Upper Income,5633.999557661192,2.0,0.8875638841567292,CenturyLink
"9417 Deer Lodge Ln Las Vegas, NV 89129",las vegas,NV,36.220563,-115.300174,320030032413,1651627909,EarthLink,49.95,10.0,1.0,Mbps,Copper,EarthLink Internet 10M,10.0,49.95,Slow (<25 Mbps),,0.5537190082644629,less white,95875.0,-37498.0,Upper Income,5633.999557661192,2.0,0.8875638841567292,CenturyLink
